quantity_in_kg,state,facility_name,site_address_suburb,site_latitude,site_longitude
93413,QLD,Tully Sugar Mill,Tully,-17.936389,145.925833
179.0452944,SA,COOKING PLANT,Dudley Park,-34.883744,138.579112
180.675832,SA,Arnott's Biscuits Limited,Marleston,-34.947778,138.558056
181.1626,SA,Tarac - Berri,Glossop,-34.280686,140.546883
32900,WA,Wagerup Alumina Refinery,Wagerup,-32.916667,115.915278
1413.977,WA,Orange Grove Quarry,Orange Grove,-32.039167,116.023889
170.042,WA,Coca Cola Euro pacific Partners (Aust) P/L,Kewdale,-31.981389,115.95
15219.3,WA,Dardanup Operations,Dardanup,-33.380833,115.7075
780.3532444,VIC,POTTERS INDUSTRIES PTY LTD,Dandenong South,-38.00854,145.208825
177.5109,VIC,Australian Textile Mills,Wangaratta,-36.361906,146.302368
349.4,VIC,Akzo Nobel Pty Limited,Sunshine,-37.770685,144.828274
491.8834495,VIC,Mars Petcare Australia,Wodonga,-36.109549,146.872359
434.73,VIC,Monash Medical Centre (Clayton Campus),Clayton,-37.921063,145.124036
9299.82,VIC,Hallam Rd Landfill,Hampton Park,-38.054942,145.274481
153.78,VIC,CCL Secure,Craigieburn,-37.612294,144.943161
234.892,VIC,Gooding Compressor Station,Moe,-38.130082,146.274799
230.943,VIC,Ararat Abattoir,Ararat,-37.281461,142.918982
72.69378045,VIC,Mulgrave,Mulgrave,-37.92283,145.15575
3794,VIC,Alcoa Portland Aluminium,Portland,-38.376902,141.631055
4565.646,VIC,Ecogen Jeeralang Power Station,Morwell,-38.273494,146.423938
549.748,TAS,Tasmanian Alkaloids Pty. Ltd. Trading as Extractas Bioscience,Westbury,-41.513885,146.831168
587.1739,VIC,St Vincents Hospital Cogeneration Plant,Fitzroy,-37.807743,144.974701
104,NSW,Dux Manufacturing Moss Vale,Moss Vale,-34.526008,150.376552
904.6,NSW,CSR Bradford Insulation,Ingleburn,-34.004625,150.841461
914.3,NSW,Cargill Australia Limited Kooragang Island,Kooragang Island,-32.881001,151.767794
320,NSW,Montoro Lutum Roofing,Bushells Ridge,-33.208266,151.483932
2886.076,SA,Energy Australia Hallett Power Station,Canowie,-33.348217,138.751048
167.95,NSW,Industrial Galvanizers Hexham,Hexham,-32.834177,151.688567
1336,NSW,InfraBuild Sydney Steel Mill,Rooty Hill,-33.76396,150.849675
102.7,SA,OPAL FIBRE PACKAGING,Athol Park,-34.85927,138.538763
1740.4,NSW,Brandy Hill Quarry,Seaham,-32.660353,151.691031
457.78,NSW,MARS Australia Pty Ltd,Bathurst,-33.426912,149.642568
1666.12,NSW,Integra Underground Coal Mine,Singleton,-32.464946,151.130575
721.032,NSW,Yambinya Station Burraboi,Burraboi,-35.328653,144.267786
18602.04,NSW,Wirrimbi Cold Store,Macksville,-30.674694,152.926222
3537.29,NSW,Queanbeyan Quarry,Queanbeyan,-35.401793,149.218158
2690.1,NSW,Clarence Colliery,Clarence,-33.46076,150.244533
72.9123,SA,Angaston Extrusion Plant,Angaston,-34.505,139.023611
2200,NSW,"Austral Brick Plants 1,2,3 Horsley Park",Horsley Park,-33.823368,150.859461
52.64,WA,Kemerton Chlor-Alkali Plant,Kemerton,-33.218611,115.757222
635.67,WA,Newman Quarry,Newman,-23.320556,119.695
283.851,QLD,South Brisbane,South Brisbane,-27.473324,153.010798
70.69,QLD,Archerfield,Archerfield,-27.565542,153.019595
154.09,QLD,Teys Australia Murgon,Murgon,-26.225566,151.928449
7414.31,QLD,Beenleigh Quarry,Luscombe,-27.783792,153.224022
3581,QLD,North Goonyella Coal Mine,Via Glenden,-21.662935,147.95609
816.35,VIC,Geelong Wiremill,North Shore,-38.091873,144.376783
496.102,NSW,Cleanaway Waste Oil Recycling Wetherill Park,Wetherill Park,-33.83709,150.90436
117.039,VIC,Lindemans Karadoc Winery,Karadoc,-34.319554,142.273013
200.943528,WA,Fremantle Hospital,Fremantle,-32.057222,115.753889
841,QLD,Mt Coot-tha Quarry,Toowong,-27.47722,152.969722
1849.29,SA,Mindarie Mineral Sands Project,Mindarie,-34.798616,140.223227
17091,QLD,Millennium Mine,Moranbah,-22.02665946,148.2467613
4347.7292,QLD,Biloela,Biloela,-24.360537,150.496721
291.189,TAS,Flowery Gully Quarry,Flowery Gully,-41.21,146.83
2976.45,QLD,Nestle Beverages - Gympie Factory,Gympie,-26.181833,152.648388
639.553,VIC,WODONGA RENDERING PTY LTD,Wodonga,-36.11279,146.877509
2135,WA,Dongara Operations,Dongara,-29.311389,114.943056
223.866,VIC,GODFREY HIRST AUSTRALIA PTY LTD,Geelong South,-38.168465,144.361281
321.41,QLD,"""Stokes""",Thargomindah,-28.344894,141.031532
767.2568,SA,Bookabourdie,Leigh Creek,-27.534064,140.469029
2819.9764,SA,Merrimelia Oil,Leigh Creek,-27.746011,140.18709
1092.21,SA,Strzelecki Gas,Leigh Creek,-28.231841,140.653202
1345.73,SA,Strzelecki Oil,Leigh Creek,-28.231841,140.653202
129.2302,VIC,Caulfield Campus,Caulfield East,-37.87722,145.04442
363.255,WA,Neds Creek Compressor Station,Meekatharra,-25.593803,119.752683
71.87738,WA,Mondarra Gas Storage Facility,Milo,-29.312696,115.117143
1384.08,NSW,Jandra Quarry,Possum Brush,-32.048061,152.455323
410.155242,QLD,Stapylton Landfill,Stapylton,-27.73797222,153.246425
140551,QLD,Plane Creek Mill,Sarina,-21.427944,149.215889
72567,QLD,Proserpine Mill,Proserpine,-20.399212,148.580705
88.9087,WA,Bega Dairy & Drinks Pty Ltd,Bentley,-32.0025,115.9275
1098,VIC,"Patrick Terminal, East Swanson Dock",West Melbourne,-37.81175,144.920032
320,QLD,Oxley Creek Wastewater Treatment Plant,Rocklea,-27.555915,152.991351
519.196,NSW,Boral Johns River Quarry,Johns River,-31.717106,152.700648
676,QLD,Pinkenba Malthouse,Pinkenba,-27.426389,153.121667
628.957,QLD,Caloundra Landfill,Caloundra,-26.788296,153.068577
42.87,QLD,Upper Kedron Flare,Upper Kedron,-27.412608,152.923135
50.7064,WA,Narrogin Waste Management Facility,Narrogin,-32.925347,117.155199
35.4013,WA,Collie Waste Facility Site,Collie,-33.363564,116.174369
256.571,WA,Albany Refuse Site,Mt Melville,-35.013136,117.863957
4916.53,TAS,Bell Bay Sawmill,Bell Bay,-41.122583,146.849523
360.4475,WA,Brownes Foods Operations - Balcatta,Balcatta,-31.859722,115.819167
76.84,ACT,Hume Asphalt Plant,Hume,-35.400025,149.1627806
365.348,SA,CHEETHAM SALT PTY LTD,Price,-34.291793,137.994976
59.6448,NSW,Dematic Pty Ltd,Belrose,-33.706759,151.213583
814.855,VIC,West Footscray Fats and Oils,Footscray West,-37.800516,144.871548
309.031,QLD,Boral Quarries Tichum,Tichum Creek,-16.9708,145.536
692.337,QLD,Boral Quarries Wellcamp Downs,Wellcamp,-27.551275,151.815602
964,VIC,WRP mine,Ouyen,-35.1838,142.489
553.577,SA,Lobethal Quarry,Lobethal,-34.902008,138.845329
12656.75,VIC,Mortlake Power Station,Mortlake,-38.067515,142.673667
582,VIC,Tip Top Dandenong,Dandenong,-38.015546,145.230981
7.96,NSW,Weston Milling - Enfield,Enfield,-33.88775,151.071111
3638.69,WA,WA Bluemetal Whitby Quarry,Whitby,-32.286026,116.031761
6500,WA,Bunbury Shipping Terminal,Bunbury,-33.320833,115.672222
835.8408,VIC,Alfred Hospital,Prahran,-37.845331,144.982316
1.136,WA,"GGT, Cosmos Delivery/Meter Station",Sir Samuel,-27.591047,120.58151
2.32,WA,"GGT, Mt Keith Delivery/Meter Station",Wiluna,-27.214516,120.548664
0.144,WA,"SCP, Kalgoorlie South Delivery/Meter Station",Feysville,-30.865675,121.480694
26,QLD,Ipswich Asphalt,Swanbank,-27.636238,152.822045
2273,QLD,Peabody Burton Mine,Nebo,-21.632839,148.115713
1793.68,VIC,Stanhope,Stanhope,-36.450731,144.992714
98.4435,WA,BridgeWest Perth Pharma (NovaCina),Bentley,-31.996944,115.893056
746.0662,TAS,Port of King Island,Grassy,-40.066126,144.060268
240.1,VIC,DGL Group Environmental Solutions,Laverton North,-37.821238,144.822103
89.5,SA,"Intercast & Forge, Wingfield",Wingfield,-34.844047,138.571052
1593.63,NSW,Buttai Quarry,Buttai,-32.841767,151.553958
971.942,TAS,Fonterra Australia Pty Ltd - Spreyton,Spreyton,-41.220142,146.359061
436.129,TAS,Fonterra Australia Pty Ltd - Wynyard,Wynyard,-40.989292,145.70972
88.542,QLD,BD&D Milk PTY LTD (Crestmead),Crestmead,-27.681667,153.071667
28997,SA,Iron Baron,Iron Baron,-32.988632,137.160391
10.857,QLD,Viva Energy Pinkenba Terminal,Pinkenba,-27.418691,153.128295
32085.7,WA,Newgen Power Kwinana Partnership,Naval Base,-32.201667,115.772778
126.1845279,NT,Shoal Bay Renewable Energy Facility,Karama,-12.3892,130.9254
2621.26729,QLD,Aurukun,Aurukun,-13.359444,141.725556
3537.71232,QLD,Boulia,Boulia,-22.911167,139.90625
1321.89542,QLD,Lockhart River,Lockhart River,-12.788333,143.339722
2631.15312,QLD,Murray Island,Murray Island,-9.915,144.047778
505.6950781,QLD,Warwick Limestone Mine and Processing Plant,Warwick,-28.391299,152.113984
1542.048,WA,Tabba Tabba,Strelley,-20.369596,118.991157
639.69,VIC,Echuca Humes,Echuca,-36.1402254,144.762609
228.84,VIC,Mulgrave Site,Mulgrave,-37.910688,145.151598
127.5662,QLD,Mareeba Processing Plant,Mareeba,-16.979863,145.416086
100.395,TAS,Boag & Son Brewing Ltd. (Lion),Launceston,-41.432018,147.138801
4384.63,WA,Cue Town Powerstation,Cue,-27.421,117.888
8206,WA,Meekatharra Town Powerstation,Meekatharra,-26.594,118.484
311.6717582,VIC,Midfield Meat Group,Warrnambool,-38.374299,142.461047
2983,QLD,Hanson Nerang Quarry,Nerang,-27.958056,153.318889
1209.4,SA,HANSON WHITEROCK QUARRY,Horsnell Gully,-34.924929,138.708579
524.3,NSW,Glenfield Sewage Treatment Plant,Macquarie Fields,-33.986046,150.903662
185.0601068,NSW,Visy Board Warwick Farm,Warwick Farm,-33.920429,150.936441
540.2960855,SA,Regency Park,Regency Park,-34.857535,138.566773
819.9,NSW,Hanson East Guyong Quarry,East Guyong,-33.407408,149.249606
10.2071,QLD,Normanton Airport,Normanton,-17.685634,141.073449
216.752,NSW,Steggles Foods Mt Kuring-Gai Pty Limited,Mundowi Road,-33.641944,151.13
69857,QLD,Middlemount Coal Mine,Middlemount,-22.86263647,148.6485552
1083,WA,Kewdale (Perth Freight Terminal),Kewdale,-31.9827553,115.9599882
33.61,SA,Whyalla,Whyalla,-33.011986,137.591626
30150.5,WA,Worsley Boddington Bauxite Mine,Boddington,-32.920556,116.465556
792603.87,WA,Worsley Refinery,Collie,-33.240703,116.067809
3393.696,VIC,Sugar Australia Yarraville Refinery,Yarraville,-37.817289,144.902408
208.479327,QLD,Swickers Kingaroy Bacon Factory,Kingaroy,-26.542911,151.859131
960.9379,VIC,Kagome Foods Aust,Echuca,-36.14977,144.765998
1618.621398,QLD,Dakabin LFGE,Dakabin,-27.225584,152.99204
41003.96,QLD,Diamantina Power Station,Mt Isa,-20.78,139.48
3008.6,TAS,Tamar Valley Power Station,Bell Bay,-41.14116167,146.902207
133.1297749,QLD,Noosa,Doonan,-26.438875,153.028062
21495,QLD,Tableland Mill,Mareeba,-17.119866,145.345043
931.932,NSW,Pentarch Edrom Chip Mill,Edrom,-31.014282,149.934576
2127.63,NSW,Hy-tec Industries Tumbulgum Quarry,Dulguigan,-28.28588,153.42325
1039.25,NSW,Hurd Haulage Grants Head Quarry,Bonny Hills,-31.58808,152.83339
76773.35,WA,Hope Downs 1 Mine,Juna Downs,-22.575,119.0746
5899.19,WA,Dampier Salt Operations,Maitland,-20.727222,116.749722
6112.68,WA,Lake Macleod Operations,Carnarvon,-24.4125,113.502222
46.247,VIC,Winchelsea CS,Winchelsea,-38.2786,143.842
168.9011,VIC,Bunurong Memorial Park,Dandenong South,-38.1616128,144.3790848
69.3488,VIC,Geelong Hospital,Geelong,-38.15128591,144.3580257
902.616221,VIC,Hallam Road Renewable Energy Facility,Hampton Park,-38.056514,145.270041
1173.412219,NSW,Thales Mulwala,Mulwala,-35.991382,145.996641
3760,NSW,Narrabri Coal Mine - Baan Baa,Baan Baa,-30.5199685,149.9022122
137.9,NSW,Bega Valley Shire Council Central Waste Facility,Frogs Hollow,-36.788587,149.796204
2020.53,SA,Adelaide Freight Terminal,Regency Park,-34.868158,138.576474
18203.72,QLD,Swanbank E,Raceview,-27.655295,152.818009
155.961024,NSW,LMS Dubbo LFG Flare Facility,Dubbo,-32.20917,148.488549
2753.65,VIC,VICTORIA INTERNATIONAL CONTAINER TERMINAL LIMITED,Port Melbourne,-37.84799,144.91436
33430,WA,Iluka - North Capel,Capel,-33.514167,115.588056
373.4662991,VIC,Visy Board Wodonga,Wodonga,-36.107647,146.829057
66588.7144,QLD,Foxleigh,Middlemount,-22.98347,148.77843
138.7,NSW,Rheem Rydalmere,Rydalmere,-33.815333,151.029417
329,WA,Geraldton Dry Plant,Narngulu,-28.807778,114.670833
1365.2,WA,Nickel West Kambalda Concentrator,Kambalda East,-31.19,121.671
4365,WA,Cliffs Nickel Project,Sir Samuel,-27.305833,120.546944
1300.383,WA,Kemerton Processing Plant,Wellesley,-33.216667,115.755278
4022,SA,Beverley Uranium Mine,Via Copley,-30.191389,139.590556
166.1403,QLD,Hemmant Feedmill,Hemmant,-27.44212,153.133349
145.624,VIC,Echuca,Echuca,-36.147267,144.771159
286.423,VIC,Kenworth Trucks,Bayswater North,-37.821712,145.299242
92.7229,NSW,Milne Compressor Station,Condobolin,-33.3891,147.033
2410.521457,WA,Thomas Rail Yard,Boodarie,-20.512575,118.5882479
0.2,VIC,Parwan South RWP,Parwan,-37.72165,144.469683
316.3344445,VIC,Visy Board Dandenong,Dandenong,-38.010899,145.206081
258.17376,NSW,LMS Kincumber Waste Management Facility,Kincumber,-33.477316,151.402635
694.406,NSW,Tooheys Brewery Lidcombe,Lidcombe,-33.84974,151.046379
30686.6,NT,Grants Lithium Developments,Cox Peninsula,-12.66121,130.77669
258.21,VIC,IRREWARRA,Irrewarra,-38.3168471,143.6489414
95.8644,VIC,ITW Buildex,Moorabbin,-37.937174,145.06275
4455.94,VIC,TT-Line Geelong Port,North Geelong,-38.10655,144.35951
80.0404,VIC,Caulfield Hospital,Caulfield,-37.882289,145.01571
900.6389,WA,Riverina-Mulline Project,Menzies,-29.7458,120.5669
226135,QLD,Stanwell Power Station,Gracemere,-23.508888,150.317777
255.85519,WA,Bentley Campus,Bentley,-32.005,115.895
846.5605,QLD,Handlebar Hill Open Cut Mine,Mount Isa,-20.5655,139.47278
2857.942,QLD,Mica Creek Power Station,Mount Isa,-20.7775,139.4905
47.5921,WA,Picton Plant,Picton,-33.351389,115.702222
9125.7513,WA,Leonora Operations,Leonora,-28.9175,121.332222
16600,QLD,Meteor Downs South Mine,Meteor Downs,-24.4194042,148.3648286
3128.79,VIC,AGL Somerton Power Station,Somerton,-37.629781,144.950082
2984.549,QLD,Bowen Rail Company Pty Ltd / Rail Provisioning Yard,Bowen,-20.01542,148.2419
119.05958,NSW,Buronga Hill Winery,Buronga,-34.153503,142.180365
11487.17,WA,Lake Way Potash Project,Wiluna,-26.74728774,120.236603
4809.448012,QLD,Pajingo Operations,Charters Towers,-20.536664,146.457631
6532.188,WA,Nullagine Gold Project,Nullagine,-21.95694,120.1375
25839.18,SA,Jacinth-Ambrosia Mine,Nullarbor,-30.905,132.215
8662.112,WA,Leinster Power Station,Leinster,-27.915833,120.696389
3261.12,NT,Pirlangimpi Community Power Station,Pularumpi,-11.408617,130.41876
904.266,NT,Minyerri Community Power Station,Minyeeri Community,-15.222769,134.077477
814.869,NT,PAPUNYA POWER STATION,Papunya,-17.439956,130.827776
41949.5576,QLD,Newlands Coal,Glenden,-21.211524,147.897182
70910,NSW,Yancoal - Moolarben,Ulan,-32.281574,149.764731
23765.752,WA,Jundee Operations,Wiluna,-26.344444,120.629722
237,NSW,Mawsons Western Riverina Quarry,Rankins Springs,-33.79497,146.0834
1101.23623,NT,Tennant Creek Power Station,Tennant Creek Roadside Delivery,-19.654869,134.175775
8117.19237,WA,Boodarie Iron Plant Site,Boodarie,-20.38,118.537778
80.11,WA,Alcoa Wagerup Meter Station,Wagerup,-32.922778,115.912778
177.25,WA,"Compressor 1, GGP Interconnect and FRGP interconnect",Mardie,-21.450278,115.953889
370.37,WA,Compressor Station 2,Nanutarra,-22.47,115.246944
389.41,WA,Compressor Station 8,Eneabba,-29.887222,115.36
2.19,WA,Kemerton Meter Station,Wellesley,-33.223611,115.77
13969.01,WA,Big Bell Mine Operations,Cue,-27.319444,117.656944
5643.466,NSW,Northparkes Mines,Goonumbla Via Parkes,-32.898451,148.051197
15841.9,QLD,RGT,Gladstone,-23.82747992,151.2350166
221,VIC,BOEING AEROSTRUCTURES AUSTRALIA PTY LIMITED,Port Melbourne,-37.829911,144.902516
1929.52,WA,Macedon Gas Project,Talandji,-21.732,114.979
2310,NSW,Yancoal - Ashton,Camberwell Via Singleton,-32.481769,151.142824
1257.96,NT,Numbulwar Community Power Station,Numbulwar,-14.282944,135.72804
14332.61,VIC,Ecogen Newport Power Station,Newport,-37.835149,144.893278
933,NSW,Attunga Lime Manufacturing Plant,Attunga,-30.923154,150.860299
2671.1,QLD,Tamaree,Gympie,-26.130833,152.667778
2149.588,NSW,Qantas Sydney,Mascot,-33.927507,151.1782
347.717,QLD,Brisbane Airport,Brisbane,-27.384167,153.1175
2506.0842,WA,Darlot Mine Site,Leonora,-27.924,121.272
174.2462,QLD,Roma North Gas Field,43km Ne Roma,-26.324,149.128
604,NT,McArthur River,Borroloola,-16.433422,136.093474
39.8,SA,Wingfield 2,Dry Creek,-34.832088,138.548914
1610,WA,Broome,Broome,-17.981116,122.2047
1320,WA,Bindyadanga,Lagrange,-18.68169,121.7846296
836,WA,Djarindjin,Dampier Peninsular,-16.3955,122.9303
25900.5,WA,DeGrussa Copper Mine,Peak Hill,-25.540556,119.334722
91475.519,NSW,Liddell Power Station,Muswellbrook,-32.371724,150.977589
11535.8156,WA,Mt Webber Iron Ore Mine,East Pilbara,-21.546,119.284
1720,QLD,Bromelton,Bromelton,-27.994108,152.932405
1305,WA,Murchison Radio Astronomy Power Station,South Murchison,-26.753,116.65915
4179,WA,Horizon Power Denham Power Station,Denham,-25.916389,113.533611
24000,QLD,Jax Coal Mine,Collinsville,-20.709315,147.859417
2270,NT,Phillip Creek Compressor Station,Tennant Creek,-19.4485,133.8553
112744.1777,WA,Fimiston Operations,Trafalgar,-30.7675,121.508056
4514.946,WA,Mount Pleasant Operations,Kalgoorlie,-30.522222,121.230278
2800.114,NSW,Snowy Hydro,Cooma,-36.208847,149.129876
23030,QLD,Bauxite Hills,Mapoon,-11.762912,142.066085
2650.415,NT,Cosmo Howley Mine Site,Hayes Creek,-13.538,131.371
2620,NSW,Duralie Coal Pty Ltd,Stroud Road,-32.296976,151.944183
107170,QLD,Grosvenor,Moranbah,-21.9727,148.012
4468.998,SA,KEVIN MINE,Penong,-32.028788,133.08572
4.83236,WA,Learmonth Airport,Learmonth,-22.231667,114.087222
7968.71,WA,Southern Ports - Esperance,Esperance,-33.869444,121.8925
577.5712,VIC,Alfred Hospital Cogeneration Plant,Melbourne,-37.845709,144.981618
111.092,VIC,M.C. HERD PROPRIETARY LIMITED,Corio,-38.06586,144.358963
92.423,VIC,Perfection Packaging,Dandenong South,-38.008279,145.237357
1108.1508,VIC,Peerless,Braybrook,-37.776031,144.863168
208.0389,VIC,Tongala,Tongala,-36.255388,144.93146
160.03,VIC,Sun Pharma Controlled Substances Division,Port Fairy,-38.381197,142.226442
485.843,VIC,Drysdale Resource Recovery Centre and Landfill,Drysdale,-38.15629,144.627296
220.441,VIC,Geelong Galvanizing,Corio,-38.060406,144.35688
95.2608,VIC,Note Printing Australia Limited,Craigieburn,-37.611378,144.944654
38.13,VIC,"Olex Australia Pty Ltd, Lilydale",Lilydale,-37.757765,145.352923
2961.925992,TAS,Austral Bricks,Longford,-41.616636,147.11177
246.437,TAS,Simplot Devonport Plant,Quoiba,-41.207027,146.347882
2798.9419,TAS,Simplot Ulverstone Plant,Ulverstone,-41.162845,146.15794
6.51662,TAS,Jackson St Waste Management Centre,Glenorchy,-42.843962,147.246739
363.41,VIC,Heidelberg Repatriation Hospital,Heidelberg West,-37.754922,145.048786
447.9486,VIC,Geelong Hospital Cogeneration Plant,Geelong,-38.15162,144.36614
1000.3168,NSW,Caroona Feedlot,Quirindi,-31.391667,150.375
132.354,NSW,Unilever Minto,Minto,-34.041598,150.840813
693.812,NSW,Prime City Feedlot,Tabbita,-34.106111,145.736111
763.40485,NSW,Kellogg Botany Plant,Botany,-33.947896,151.210541
17100,NSW,MolyCop Waratah,Waratah,-32.893815,151.723715
2158.866,NSW,Boral Dunmore Quarry,Dunmore,-34.609836,150.833973
2391.183,NSW,Tahmoor Coal Mine,Tahmoor,-34.249129,150.577068
139.622,NSW,Coca-Cola Europacifc Partners Northmead,Northmead,-33.798659,150.984774
33740.1844,NSW,Tumbarumba Mill,Tumbarumba,-35.773406,147.966083
159.8,NSW,Southern Oil Refinery Bomen,Bomen,-35.068917,147.410667
546.67,WA,Geraldton Quarry,Greenough,-28.916667,114.75
2109.8,QLD,Warwick Brick Works P/L,Warwick,-28.228423,152.040444
4034.43,WA,Voyager Operations,Woottating,-31.87334,116.356632
3012.11,WA,Gosnells Quarry,Martin,-32.068611,116.022778
210,QLD,Yabulu Refinery,Yabulu,-19.200166,146.61331
4175.61,QLD,Whyalla Feedlot,Texas,-28.745209,151.052599
2240.6204,QLD,Opal Creek,Cecil Plains,-27.679387,150.914363
899.4919567,QLD,Tingalpa site,Tingalpa,-27.473745,153.112
9622.130188,QLD,Braemar Power Project,Dalby,-27.110758,150.905244
1792,ACT,LOWER MOLONGLO WATER QUALITY CONTROL CENTRE,Holt,-35.246843,148.971271
104300,WA,Pinjarra Alcoa Alumina Refinery and Alinta Cogeneration Plant,Pinjarra,-32.635,115.944167
3397,QLD,Bracalba Quarry,Bracalba,-26.997944,152.82125
181364.433,NSW,Bulga Coal Surface and Underground Operations,Singleton,-32.676997,151.090884
416.8344,NSW,Teys Australia Jindalee,Springdale,-34.455293,147.77504
147.784,NSW,Tangaratta Stockfeeds Pty Limited,Tamworth,-31.039983,150.847139
265.889,VIC,Western Hospital - Sunshine,St Albans,-37.759935,144.80859
1885.25,QLD,Wallumbilla Terminal,Wallumbilla,-26.6958,149.184
241.3,VIC,GREAT OCEAN INGREDIENTS PTY LTD,Allansford,-38.39438889,142.6276944
511.557,VIC,Shepparton Quarry,Cosgrove,-36.32739,145.5956
298.51809,VIC,Strathmerton Site,Strathmerton,-35.92338889,145.4882222
1026.94,WA,Midland Brick - South Guildford,South Guildford,-31.9203583,115.9888667
66.356573,QLD,COMGROUP SUPPLIES PTY LTD,Carole Park,-27.6225,152.925
3341.16,WA,Munster (Russell Rd) Operations,Munster,-32.140833,115.795
796,VIC,Ballarat Project,Mt Clear,-37.58955556,143.8583611
126.08,TAS,Polyfoam,Bridgewater,-42.73661667,147.2549333
910.6197201,QLD,"""Scotia""",Wandoan,-25.943333,150.072222
183.36,SA,Kidman Gas,Leigh Creek,-28.230173,140.812644
18073.8484,SA,Limestone Creek Oil,Leigh Creek,-28.514621,140.391264
713.62,SA,Daralingie Gas,Leigh Creek,-28.370458,139.973211
1835.478,QLD,Beef City Feedlot,Purrawanda,-27.523639,151.619025
214.1073,QLD,Townsville Abattoir,Aitkenvale Via Townsville,-19.333333,146.854226
3164.5,TAS,Kara Mine,Hampshire,-41.31501573,145.7787119
1063.7598,VIC,Clayton Campus,Clayton,-37.91102,145.13364
106.817,QLD,Davenport Downs Compressor Station,Morney Tank,-24.337355,141.108489
1176.8,NSW,EnergyAustralia Tallawarra Pty Ltd,Yallah,-34.522894,150.808039
98.07487626,QLD,Reedy Creek Landfill,Reedy Creek,-28.10819444,153.4192667
182.4176,TAS,Tasmanian Advanced Minerals,Wynyard,-40.98153707,145.6960444
9983.7543,TAS,Port of Bell Bay,Bell Bay,-41.13226194,146.8664776
7477.8248,TAS,Port of Devonport,Devonport,-41.18488395,146.3624997
169.279,VIC,"Luv-a-Duck Processing, Nhill",Nhill,-36.323113,141.62869
10.243608,SA,Angas Zinc Mine,Strathalbyn,-35.2511111,138.9197222
67.81,VIC,Wodonga,Wodonga,-36.103765,146.854456
1295.009,NSW,Etex - Matraville,Matraville,-33.970322,151.231357
126.9538,WA,Milne Feeds,Welshpool,-31.994889,115.928284
507.461,NSW,Boral Byrock Quarry,Byrock,-30.709771,146.307235
43,QLD,Clifton,Clifton,-27.930333,151.906361
1144.692,ACT,Boral Mugga Lane Quarry,Symonston,-35.366813,149.136645
556.536,VIC,Coldstream Quarry,Lilydale,-37.738284,145.367323
130.942,WA,Wylie Bay Waste Management Facility,Bandy Creek,-33.826327,121.960537
7260,QLD,Jordan CPP,Kogan,-27.110322,150.714028
75.9474,WA,Manjimup Recycling and Refuse Centre,Manjimup,-34.216837,116.122779
154.357181,NSW,Steggles Beresfield Site No 2,Beresfield,-32.795299,151.645919
5620.15,NSW,CBH Resources- Rasp Mine,Broken Hill,-31.966404,141.461589
400.165,SA,Para Hills Quarry,Gulfview Heights,-34.787976,138.678549
2078,NSW,National Ceramic Industries Rutherford Plant,Rutherford,-32.717466,151.503076
101.16,QLD,Kogan Gas Field,Via Dalby,-27.07836944,150.9372278
99.45,NSW,Junee Abattoir,Junee,-34.891071,147.578215
11432,WA,Christmas Island Power Station,Christmas Island,-10.442222,105.666944
50302.73,NSW,Borg Panels Pty Ltd,Oberon,-33.690817,149.857163
296.3,QLD,Tipton Operations,(Via) Dalby,-27.4006944,151.116672
187.01,QLD,Moranbah Operations,Moranbah,-21.989376,148.017122
6013.68849,WA,Beenyup Wastewater Treatment Plant,Craigie,-31.785833,115.776667
3343.3657,WA,Quintis Sandalwood,Albany,-34.9241,117.790411
5705.8,NSW,Allandale Quarry,Allandale,-32.741046,151.410913
29163.42,QLD,Darling Downs Power Station,Dalby,-27.11430353,150.8968157
2.384,WA,"GGT, Jaguar Delivery/Meter Station",Leonora,-28.424031,121.143708
2613.22,QLD,Tarbat,Quilpie Shire,-26.888701,143.28938
245.38,QLD,Mt Cordelia Quarry,Mount Cordelia,-18.605211,146.239936
910.45,WA,Bunbury Quarry,Gelorup,-33.406653,115.653073
1438.1,VIC,Warrnambool-TARRONE,Tarrone,-38.214972,142.227118
162087.6254,WA,Collie Power Station,Collie,-33.344444,116.259444
6260,QLD,Bellevue CPP,Via Miles,-26.693857,150.277238
142.82,NSW,VISY Beverage Smithfield,Smithfield,-33.83649,150.925334
43796,SA,IRON ORE MINES,Whyalla,-33.240216,137.106632
1454.5372,QLD,Kenya Water Treatment Plant,Chinchilla,-26.950937,150.475423
114.114624,NSW,LMS Stotts Creek Renewable Energy Facility,Stotts Creek,-28.290752,153.498356
1927.28448,NSW,LMS Wyong Renewable Energy Facility,Jilliby,-33.209368,151.42269
599.9233855,QLD,Swanbank Renewable Energy Facility,Swanbank,-27.659114,152.823822
166.0581,VIC,Bega Dairy & Drinks - Chelsea Heights,Chelsea Heights,-38.021054,145.121488
708.3272,SA,Southern Waste Resourceco,Mclaren Vale,-35.21803,138.493967
108.20615,QLD,Barcaldine Power Station,Barcaldine,-23.55224,145.31459
41.2683,NSW,Kincumber Sewage Treatment Plant,Kincumber,-33.48039,151.391336
59.6,NSW,Elgas Sydney LPG Cavern,Port Botany,-33.9782251,151.2138462
424.592,NSW,Primo Chullora,Chullora,-33.894115,151.052067
287924,QLD,Invicta Mill,Giru,-19.51572222,147.10625
4215.56,SA,Cairn Hill Mine Site,Maralinga,-29.2955,135.1125
4.3952,SA,Beston Pure Foods Murray Bridge,Murray Bridge,-35.1216028,139.2547806
1164.42,QLD,James Hardie Carole Park,Carole Park,-27.61871389,152.9277778
538,QLD,DP World Brisbane,Wynnum,-27.381667,153.167222
1469.157,QLD,Century Mine,Burketown,-18.722879,138.599724
1226,QLD,Hanson Glasshouse Mtns Quarry,Glass House Mountains,-26.910155,152.9188
279.4,VIC,Kiewa,Tangambalanga,-36.251249,147.034642
675.156,SA,Moomba Meter and Compressor Station,Moomba,-28.132778,140.20667
347.6,NSW,Wollongong Sewage Treatment System,Wollongong East,-34.442068,150.898473
206.942,WA,Mt Magnet Town Gas Powerstation,Mount Magnet,-28.087,117.8327
5172.3935,VIC,Visy Melbourne Plant,Spotswood,-37.831506,144.891109
16.8152,WA,Chandler Rd Landfill Site,Merredin,-31.428653,118.300514
88.228,NSW,Pax Australia,Ingleburn,-33.995605,150.85093
33,QLD,Boral Asphalt Charlton,Wellcamp,-27.52761944,151.8427778
191.9959,VIC,Clyde Feedmill,Clyde,-38.13522,145.342191
5079.81,NSW,Bartter Cardiff Feedmill,Cardiff,-32.938619,151.648808
56475.534,NSW,Mangoola Coal,Muswellbrook,-32.261857,150.839356
2.3064,WA,Carnarvon Airport,Carnarvon,-24.883333,113.666944
365.9,VIC,Ringwood,Ringwood,-37.831116,145.220513
98,QLD,Mobile Plant 7832,Narangba,-27.198459,153.006338
884.079,VIC,Parkville Campus - Bedford St,North Melbourne,-37.8022957,144.9537071
11.890034,QLD,SEI Moranbah Power Station,Moranbah,-21.985278,148.016111
736.4755,QLD,Teys Australia Beenleigh,Beenleigh,-27.714188,153.177433
95.8,SA,Thomas Foods International Lobethal,Lobethal,-34.902848,138.881633
2238,SA,Sellicks Hill Quarry,Sellicks Hill,-35.340544,138.468173
2001.92,SA,Southern Cross Feedlot,Tintinara,-35.761158,140.102857
10205.069,QLD,QNP Ammonium Nitrate Plant,Moura,-24.5379,150.031
420.444,SA,Michell Pty Ltd,Salisbury South,-34.786389,138.648333
76.19634297,VIC,Cosgrove Renewable Energy Facility,Cosgrove,-36.348,145.598
179.147,WA,Quaker Oats Australia Pty Ltd,Forrestfield,-31.97,115.99
473.72,QLD,Laminex Gympie - Monkland,Gympie,-26.219211,152.694511
67.0045,VIC,CAPRAL LIMITED,Campbellfield,-37.66832,144.965372
43,NSW,Boral Asphalt Port Kembla,Port Kembla,-34.454525,150.863951
2985.5,WA,Gaskell Sands,Gnangara,-31.7559,115.9493
83.9376,WA,Avon Industrial Park Peak Power Station,Grass Valley,-31.643081,116.847421
353.01,QLD,AGRIPOWER AUSTRALIA LTD,Broughton,-20.05631,146.33061
311.9283,VIC,Bairnsdale Regional Landfill,Bairnsdale,-37.881159,147.63239
768.7727,NSW,Teys Australia Wagga Wagga,Wagga Wagga,-35.078422,147.409837
5205.162562,QLD,Parkhurst Magnesia Plant,Parkhurst,-23.318703,150.50542
45.91732498,QLD,Hervey Range,Bohle,-19.31675,146.6547222
24.72230078,QLD,Molendinar,Molendinar,-27.97518056,153.3538889
1823.1,VIC,Hanson Kilmore Quarry,Kilmore,-37.286547,144.979073
692.5,VIC,Hanson Diggers Rest Quarry,Melton,-37.615964,144.644582
133802.27,WA,Brockman 2/Nammuldi Mine,Tom Price,-22.418056,117.310833
4584.85,WA,Koodaideri Mine,Newman,-22.53289446,119.0844959
70.8922,VIC,Springhurst Compressor Station,Springhurst,-36.192,146.516
724.8758,VIC,VIP Packaging - Drum Reconditioning,Laverton North,-37.820294,144.819859
113.6555,VIC,Taylors Rd soil processing facility,Dandenong,-38.043503,145.232587
702.79,NSW,Bayrange TG Jung Quarry,Coffs Harbour,-30.282,153.06782
63191.523,QLD,South Walker Creek Mine Operations,Nebo,-22.3,148.241389
109.1234317,SA,NAWMA Renewable Energy Facility,Uleybury,-34.6736,138.7294
112.128,NSW,Moorebank Bakery,Moorebank,-33.927629,150.9294
163.653,QLD,Burleigh Heads Bakery,Burleigh Heads,-28.103866,153.411577
333.2,QLD,Quantem,Pinkenba,-27.423066,153.126956
128.603,SA,Forestville Bakery,Forestville,-34.949291,138.58062
1615,NSW,Rocglen Coal Mine,Gunnedah,-30.766939,150.273117
1711.9,NSW,Whitehaven Rail Siding,Gunnedah,-30.95057842,150.1999395
44.4906,WA,Landsdale Resource Recovery Park,Landsdale,-31.80018338,115.8471431
607.2326,NSW,Overall Forge,Ettamogah,-36.00252,146.985844
141604.249,QLD,Glencore Coal - Hail Creek Open Cut Mine,Nebo,-21.488923,148.369134
343.129,VIC,PGH Bricks & Pavers Thomastown,Thomastown,-37.686296,144.97665
90.0912,NSW,The Daily Drinks Company Smithfield,Smithfield,-33.837334,150.947017
378.831,NSW,"Bega Dairy and Drinks, Wetherill Park",Wetherill Park,-33.845541,150.897549
88.2887,NSW,Bega Dairy & Drinks Penrith,Penrith,-33.747998,150.690002
556.5177,TAS,Claremont,Claremont,-42.792703,147.266846
159.994,ACT,UNIVERSITY OF CANBERRA,Canberra University Lpo,-35.241429,149.089396
63.234,VIC,H B FULLER COMPANY AUSTRALIA PTY LIMITED,Dandenong South,-38.024123,145.202294
107.4,QLD,Kirra St Bitumen Import Facility,Pinkenba,-27.418987,153.135289
94.98,TAS,Selfs Point Bitumen Terminal,New Town,-42.84581,147.32441
77.0688,VIC,Thomastown,Thomastown,-37.69054,145.04202
624.385,NSW,Baiada Beresfield Site,Beresfield,-32.795299,151.645919
4303.58102,QLD,Mt Carlton,Ayr,-20.27080185,147.5664272
12969,QLD,Kogan Creek Power Station,Brigalow,-26.9175,150.75
101.546,SA,Suttontown,Suttontown,-37.797642,140.775234
177936.25,NSW,Mt Arthur Coal,Muswellbrook,-32.337182,150.861779
4265,QLD,Hay Point Terminal,Hay Point,-21.276667,149.293333
34.24,NSW,Wagga Wagga Asphalt Plant,Bomen,-35.06811389,147.4122889
435.797,QLD,Acacia Ridge,Acacia Ridge,-27.582719,153.032245
0.961,QLD,Karumba Airport,Karumba,-17.45513329,140.8321602
11657.59,WA,Halls Creek Project,Halls Creek,-18.409731,127.354422
6.07,VIC,Transwaste Technologies - Campbellfield,Campbellfield,-37.667008,144.966063
392.2921,SA,Wingfield Protein Conversion Plant,Wingfield,-34.840833,138.550833
368.8989,SA,Edinburgh Parks FP,Edinburgh,-34.72777,138.63263
270.5956,SA,Bolivar Primary Processing,Burton,-34.744722,138.586944
90.5388,WA,Osborne Park,Osborne Park,-31.911667,115.826111
0.57,VIC,Melton RWP,Melton South,-37.751377,144.591523
1783.2,QLD,NuGrow Ipswich,Swanbank,-27.669922,152.818495
23309.09062,WA,Herb Elliott Port,Boodarie,-20.3352,118.5707
222816.4384,WA,Solomon Hub,Tom Price,-22.209,117.826
1099.43,WA,City of Rockingham Millar Road Landfill Facility,Baldivis,-32.283611,115.819722
266.6284,VIC,Australian Centre for Disease Preparedness,Geelong East,-38.153005,144.387771
29238.989,WA,Kwinana Power Station,Naval Base,-32.198333,115.776667
4939.6869,WA,Hopetoun Wind Diesel Power Station,Hopetoun,-33.90465,120.129714
110.86,QLD,Nudgee Flare,Nudgee Beach,-27.362992,153.099366
214.2521048,VIC,Visy Board - Campbellfield,Campbellfield,-37.650325,144.935503
504.189,WA,Austral Bricks - Cardup,Cardup,-32.245302,116.015525
2229.10578,NT,Ron Goodin Power Station,Alice Springs,-23.709154,133.891131
1035.35079,NT,Katherine Power Station,Katherine,-14.458136,132.244181
95.25289,NT,Kings Canyon Power Station,Kings Canyon,-24.247434,131.507138
1806.71,NT,Katherine Quarry,Katherine,-14.502609,132.336704
696,SA,Roxby Downs Quarry,Roxby Downs,-30.565715,136.856007
53.3709,WA,Bibra Lake,Bibra Lake,-32.118934,115.804837
682.2,NT,Blacktip Onshore Gas Plant,Wadeye,-14.2413,129.435
4117.8928,WA,Kwinana Terminal,Kwinana Beach,-32.229086,115.762999
617.04162,NSW,Arnotts Biscuits Huntingwood,Huntingwood,-33.796377,150.873166
1717.592,WA,Coolgardie Gold Operations,Coolgardie,-30.93,121.2
16797.38,WA,Granny Smith Mine,Laverton,-28.813889,122.420833
46609.24,WA,Greater Karara Project,Rothsay,-29.175388,116.785013
3319.61257,TAS,Railton Works,Railton,-41.332377,146.416353
12730,QLD,Phosphate Hill,Dajarra,-21.880932,139.97639
4121.43,WA,Wheatstone Platform,Karratha,-19.929383,115.38395
24348.61232,WA,St Ives Lake Lefroy Operations,Widgiemooltha,-31.326056,121.761865
9312.992,WA,Central Norseman Gold Project,Norseman,-32.193333,121.801111
1973.06017,WA,Lakewood Gold Processing Facility,Lakewood,-30.800556,121.540278
6555.543101,WA,Plutonic Gold Mine,Meekatharra,-25.321046,119.451358
32214.34,WA,Bellevue Gold Mine,Sir Samuel,-27.646824,120.552277
7851.37,WA,Kambalda Power Station,Kambalda,-31.190833,121.672222
39588.62,WA,Thunderbox Operations,Leinster,-28.192778,121.006111
34.5,NSW,Mawsons Armstrong Pit Quarry,Warburn,-34.10839,145.96751
8990,QLD,Dyno - Moranbah,Moranbah,-21.972444,147.983832
4011.71086,NT,Owen Springs Power Station,Brewer Industrial Estate,-23.863612,133.824766
15830,WA,Ngujima-Yin,Exmouth,-21.43333,114.033333
13770.96,WA,Porphyry Gold Mine,Kookynie,-29.792135,122.286818
7976.77,WA,Penny Gold Mine,Sandstone,-28.82573769,118.7935577
45900,WA,Yancoal - Premier,Collie,-33.396,116.274
351.31,WA,Tubridgi Gas Storage Facility,Onslow,-21.78361111,114.8663889
10200.94303,WA,Port Hedland Power Plant,Boodarie,-20.428333,118.549722
145.816,VIC,WARRNAMBOOL CAMPUS,Warrnambool,-38.380139,142.473427
100.6633,SA,SALISBURY,Salisbury South,-34.783592,138.650499
776.5,WA,Compressor Station 3,Lyndon,-23.646667,115.146111
966.67,WA,Compressor Station 9,Red Gully,-31.105,115.775833
2126.7092,WA,Waitsia Gas Field,Mount Adams,-29.3,115.09
19650,WA,Karlawinda Gold Project,Capricorn,-23.767778,120.010278
39,NSW,Brou Landfill Facility,Dalmeny,-36.144923,150.096399
2066.35,NT,NGANMARIYANGA POWER STATION,Nganmariyanga,-14.357843,129.88439
1100.78,NT,Lajamanu Community Power Station,Lajamanu,-18.328756,130.62871
4310,SA,Stunsail Oilfield,Via Port Augusta,-27.648988,139.458764
38837,WA,Mt Cattlin Spodumene Project,Ravensthorpe,-33.560697,120.017294
168.47854,WA,Welshpool Operations,Welshpool,-31.989141,115.92731
1180,NSW,Excelsior Quarry,Capertee,-33.064444,149.978056
19.6,NSW,EDL Jack's Gully,Mount Annan,-34.070634,150.729513
8.13,SA,Wingfield 1,Wingfield,-34.834829,138.557243
12.7,VIC,Brooklyn,Brooklyn,-37.817979,144.83198
6.53,WA,Leonora,Leonora,-28.883611,121.330278
2140,WA,Maitland,Karratha,-20.83346,116.6806
1370,WA,Derby,Derby,-17.3142,123.6441
1170,WA,Warmun,Warmun,-17.0342295,128.2095087
205,QLD,Moranbah North,Moranbah,-21.887467,147.963242
821,WA,Ardyaloon,Dampier Peninsula,-16.448,123.047
19.7,NSW,EDL Glennies Creek,Singleton,-32.459925,151.128703
366,VIC,Pyramid Hill Quarry,Pyramid Hill,-36.06037,144.14244
662638.768,VIC,AGL Loy Yang,Traralgon,-38.251662,146.589831
174533.9,WA,"Sino Iron Project - Mining, Processing & Infrastructure Area",Mardie,-21.077,116.16
3870,VIC,Little River,Little River,-37.917409,144.427256
2370,VIC,Nyora,Nyora,-38.3335401,145.6106686
5008,WA,Horizon Power Laverton Power Station,Laverton,-28.621389,122.396389
1770,QLD,Cook Colliery,Blackwater,-23.71695,148.894636
4370,QLD,Sonoma Coal Mine,Collinsville,-20.638,147.856
66.6,QLD,Mt Isa compressor station,Mount Isa,-20.787735,139.479197
795,QLD,Rolleston Compressor and Meter Station (Queensland Gas Pipeline),Rolleston,-24.708639,148.844389
23000,QLD,Yancoal - Cameby Downs,Chinchilla,-26.64933,150.33736
4024.8,VIC,Laverton,Laverton North,-37.84158,144.788657
1163,NSW,InfraBuild Wire ( Newcastle),Mayfield,-32.888479,151.747923
11200,QLD,Vulcan,Dysart,-22.28417,148.18378
15795.942,WA,Mt Magnet Gold Project,Mount Magnet,-28.040833,117.824167
9889.839,WA,Edna May Operations,Westonia,-31.290942,118.700986
11031.008,QLD,Kilcoy Pastoral Company Ltd,Kilcoy,-26.936369,152.590403
1348.570061,QLD,Queensland Tissue Products Pty Ltd,Carole Park,-27.619,152.936
74.41,SA,Mile End Asphalt Plant,Mile End,-34.938333,138.571389
127.448928,SA,TARAC TANUNDA ROAD,Nuriootpa,-34.480498,138.988957
238.12695,WA,Hartway Galvanizers,Canning Vale,-32.057222,115.911667
125.607,WA,Boodarie Compressor Station,Boodarie,-20.428056,118.5525
31680.658,VIC,Esso - Crude Oil Stabilisation Plant,Longford,-38.225234,147.161224
163.067,VIC,Lockwood Processing Plant,Lockwood,-36.812428,144.165077
456.53,VIC,Pittong,Linton,-37.683723,149.564213
4072.17,VIC,Lang Lang Sand Quarry and Processing Plant,Lang Lang,-38.30917,145.6386
1125,VIC,DANDENONG PLANT,Dandenong,-38.012259,145.216298
162.922,VIC,PRINCES LAUNDRY SERVICES PTY LTD,Braeside,-37.997202,145.123236
2043.178253,VIC,CSR Gyprock-Yarraville,Yarraville,-37.817277,144.901738
1216.249,TAS,Dulverton Regional Waste Management landfill,Dulverton,-41.279076,146.386379
23.296,TAS,Galvline Tasmania,Prospect Vale,-41.486195,147.12562
958.5318,VIC,Royal Melbourne Hospital Cogeneration Plant,Parkville,-37.799284,144.95449
781,VIC,Laverton North,Laverton North,-37.828024,144.799182
320.5872,VIC,CSR Monier Terracotta,Vermont,-37.832938,145.193878
222,NSW,Groundwater Treatment Plant,Matraville,-33.956085,151.220876
78.6689,NSW,Borg Plantations Tumut,Tumut,-35.303934,148.203461
100135,NSW,Rix's Creek Mine,Singleton,-32.499201,151.131857
200.663,NSW,Industrial Galvanizers Girraween,Girraween,-33.804875,150.939952
300.23,NSW,Pentarch Timber Herons Creek,Herons Creek,-31.590747,152.728677
24366.7,NSW,Highland Pine Products Oberon Sawmill,Oberon,-33.698101,149.853902
709.9,NSW,Sydney (Kingsford Smith) Airport,Mascot,-33.937335,151.178964
4231.3,NSW,Muswellbrook Coal Company,Muswellbrook,-32.240783,150.953329
7.25304,NSW,Norah Head Outfall - Toukley Sewage Treatment Plant,Noraville,-33.276438,151.554199
2410.24,NSW,Appin Mine,Wilton,-34.211045,150.79271
389.928,WA,Royal Perth Hospital - Wellington Street,Perth,-31.954167,115.865556
221.675,QLD,PGH Bricks and Pavers Oxley,Inala,-27.57225,152.9698
2115,VIC,Douglas Mineral Sands Mine,Douglas,-37.033347,141.732203
105,QLD,Boral Asphalt West Burleigh,West Burleigh,-28.11314,153.416411
2236.8408,QLD,Yuleba Cypress Sawmills,Miles,-26.690278,150.191389
303.651,QLD,Nambour Landfill,Nambour,-26.6125,152.979444
4582.74,QLD,Swanbank Waste Management Facility,Swanbank,-27.657087,152.82914
382.778,QLD,Brisbane Airport Corporation,Brisbane Airport,-27.385278,153.119167
180.18254,SA,Plantation Treated Timber Pty Ltd,Kalangadoo,-37.560556,140.703056
7179.9425,SA,BORDERTOWN,Bordertown,-36.327778,140.737222
226.5,SA,Dry Creek,Dry Creek,-34.840278,138.590556
3992.54,QLD,Mater Health Services,South Brisbane,-27.486378,153.027897
1295.886,QLD,Boral Quarries West Burleigh,West Burleigh,-28.115278,153.421389
2655.07,QLD,Bohle quarry,Bohle,-19.260666,146.693918
4605.12,QLD,Petrie Quarry,Kurwongbah,-27.245465,152.927757
2089.49,QLD,Calcium Quarry,Calcium,-19.65207,146.83038
1868.968,SA,Bolivar Wastewater Treatment Plant,Bolivar,-34.769126,138.58394
583.608,SA,PGH Bricks and Pavers Golden Grove,Golden Grove,-34.788678,138.732047
152,SA,OSBORNE COGENERATION PLANT,Osborne,-34.797711,138.507489
21388.8,QLD,Kogan Creek Mine,Via Brigalow,-26.928889,150.779167
19564,QLD,Aurora Metals Limited Chillagoe,Chillagoe,-17.110662,144.383762
51.3691,QLD,HEXION PTY LTD,Murarrie,-27.437181,153.119886
6596.27,NSW,Weathertex Pty Ltd,Raymond Terrace,-32.78368,151.74086
16407.821,QLD,DTM Timber Tiaro Sawmill,Tiaro,-25.706749,152.619687
87.17,NSW,Minto Asphalt Plant,Minto,-34.037153,150.834725
7451.2,NSW,Bindaree Beef Inverell,Inverell,-29.764444,151.058389
33757.6081,WA,Mt Weld Rare Earths Project,Laverton,-28.854848,122.522465
12407.7348,QLD,Cape Flattery Silica Mines,Cooktown,-14.989327,145.327076
99.57600006,VIC,Hamilton Base Hospital,Hamilton,-37.737353,142.029795
140.02,QLD,Ormeau Asphalt Plant,Ormeau,-27.7512528,153.255494
552.33,TAS,Launceston Quarry,Mowbray,-41.402689,147.152373
3513.290656,VIC,Visy Paper No. 4 and 5,Campbellfield,-37.649051,144.937198
545.80363,NSW,Mars Food Berkeley Vale,Berkeley Vale,-33.3257,151.415827
297.48,VIC,Bradken Wodonga,Wodonga,-36.12048,146.895681
447.912,NSW,Young Compressor Station,Young,-34.239393,148.323115
0.00348494,QLD,Kogan North,Kogan,-27.08127594,150.865716
21.326,WA,Shale Road Landfill,Whitby,-32.264722,116.021111
45883.78,NSW,Berrima Cement Works,New Berrima,-34.506507,150.336196
5252.813085,VIC,Armstrong Flooring,Braeside,-37.993812,145.112379
71.632,NSW,Polyfoam (Sydney) Pty Ltd,Moorebank,-33.931097,150.928406
1563.76,SA,Toolachee Gas,Leigh Creek,-28.231841,140.653202
1428.86,SA,Big Lake Gas,Leigh Creek,-28.237955,140.273762
184.522,NSW,Linen Services Australia North Rocks,North Rocks,-33.774064,151.009483
417,WA,BBM Perth,Welshpool,-31.99485,115.968472
744,VIC,CARGILL PROCESSING LIMITED,Footscray West,-37.811078,144.857613
262.91,VIC,Somerton,Somerton,-37.641832,144.941312
705.134,NSW,Boral Shadforth (Orange) Quarry,Shadforth,-33.383177,149.18161
145.062,VIC,Laverton Processing Plant,Laverton North,-37.821,144.816
2302.4,VIC,TT-Line Port Melbourne,Port Melbourne,-37.841701,144.931551
525.762,VIC,AUSTRALIAN MEAT GROUP DANDENONG,Dandenong,-38.028574,145.198767
159474,SA,WHYALLA STEELWORKS,Whyalla,-33.009655,137.585513
91.9429,QLD,Chandler Flare,Chandler,-27.511803,153.153319
397.152,VIC,Mission Foods,Epping,-37.64475407,144.998279
1848.72,NSW,Wilga Park Power Station,Narrabri,-30.214,149.403
11228,QLD,Ruby Jo CPP,Kumbarilla,-27.231634,150.857159
141.3,SA,Centennial Park Cemetery Authority,Pasadena,-34.997467,138.588088
1733.41,QLD,Callemondah Rail Yard (Fuelling Facility),Callemondah,-23.865002,151.229228
82.6396,VIC,Just Biodiesel,Indigo Valley,-36.1185,146.699
168,NSW,Kooragang Coal Terminal,Kooragang Island,-32.880358,151.772976
146.088,NSW,Pacmetal Services,Glendenning,-33.753951,150.850448
2589.76,NSW,Dubbo Quarry,Dubbo,-32.280353,148.656958
9808.850062,QLD,Cloncurry Project,Cloncurry,-21.662972,140.481706
819.103,QLD,Boral Quarries Redlynch,Redlynch,-16.9272,145.685
75,SA,Gepps Cross Asphalt Plant,Gepps Cross,-34.845898,138.590564
654.113,SA,Stonyfell Quarry,Stonyfell,-34.937311,138.681107
664.722,SA,Mt McIntyre Quarry,Mount Mcintyre,-37.56595278,140.5445389
2196.8,NSW,Newstan Colliery,Fassifern,-32.976997,151.571532
553.32234,SA,Malt Cavan,Cavan,-34.823725,138.596066
191.32,VIC,Maroondah Hospital,Ringwood East,-37.805025,145.255326
611.79,NSW,Tip Top Bakeries Chullora,Chullora,-33.895754,151.048034
11288,SA,Keith Proteins Division,Keith,-36.061437,140.451907
3110,WA,Home Island Power Station,Cocos(Keeling) Island,-12.116667,96.9
3911.175,WA,West Island Power Station,Cocos (Keeling) Island,-12.183333,96.816667
2598,VIC,Mandalay Resources Costerfield Operations,Costerfield,-36.89159,144.800353
75.63,SA,Compressor Station 1,Out Of Hundreds Strzelecki,-28.704506,140.04509
257.3923497,NSW,IVE Group Print Warwick Farm,Warwick Farm,-33.916716,150.935744
0.288,WA,"GGT, Leinster Terminal Delivery/Meter Station",Leinster,-27.812547,120.697154
21.184,WA,"GGT, Paraburdoo Delivery/Meter Station",Innawanga,-23.340284,117.579639
1.056,WA,PGP - Chandala Meter Station,Yanchep,-31.532494,115.946439
660.341,VIC,Barwon Water Biosolids Management Project,Connewarre,-38.28265,144.418253
3119.86,WA,Daisy Milano Gold Mine,Emu Flat,-31.014858,121.923231
71.873308,QLD,Bandag Manufacturing Pty Limited,Wacol,-27.602488,152.928364
124.309,VIC,Blackmores Braeside,Braeside,-38.007632,145.107844
100574.22,VIC,Viva Energy Geelong Refinery,Corio,-38.076224,144.379108
859.56,VIC,Colac,Ondit,-38.254506,143.614493
713.51,NSW,Boambee Quarry,Coffs Harbour,-30.30118,153.054547
142.21,SA,Wingfield,Wingfield,-34.848011,138.572556
324.9960381,VIC,IVE PWO Sunshine,Sunshine,-37.80083333,144.835
92.1061,WA,Welshpool,Welshpool,-31.988413,115.943316
10.072,QLD,Viva Energy Townsville Terminal,Townsville,-19.255742,146.832117
145.0735,QLD,GELITA Australia,Beaudesert,-28.021047,152.932222
85.8816,NSW,Sara Lee,Lisarow,-33.381093,151.357484
77.9453518,QLD,Birkdale Renewable Energy Facility,Birkdale,-27.509277,153.225562
3968.14,SA,Central Power House Umuwa,Umuwa,-26.481348,132.01843
16.048,WA,GGP. Boonamichi Well Meter Station,Newman,-23.5522,118.4835
113.61572,QLD,Banyo,Banyo,-27.378945,153.079518
328.427,VIC,Nestle Confectionery & Snacks,Broadford,-37.212763,145.062103
0.0297,TAS,Westbury LNG Plant,Westbury,-41.51,146.8295
1856,VIC,West Swanson Terminal,West Melbourne,-37.810235,144.911025
314.9047,QLD,Northern Water Treatment Plant,Woleebee Creek,-26.280165,149.79489
1.29,VIC,Siltech PMR,Campbellfield,-37.665306,144.9570853
50945.525,QLD,APLNG Facility - Curtis Island,Curtis Island,-23.755,151.19
2098.66,NSW,Hexham Train Support Facility,Hexham,-32.823212,151.680762
32132.9645,NSW,Bega Cheese Limited DPU,Bega,-36.668322,149.83048
6201.9944,QLD,Teys Australia Rockhampton,Rockhampton,-23.38,150.559722
2350.404,VIC,Yarraville,Yarraville,-37.8208968,144.8987927
45.88555033,QLD,Tugun Closed Landfill,Tugun,-28.16025,153.496922
0.317856,NSW,Prysmian Australia Dee Why,Dee Why,-33.73572,151.283297
1522.4,QLD,Edmonton Quarry,Edmonton,-17.081667,145.730278
1226.7,WA,Hanson Bunbury Quarry,North Boyanup,-33.406389,115.6625
270.1,VIC,Maffra,Maffra,-37.97298,146.967114
126.6,NSW,West Camden Sewage Treatment Plant,West Camden,-34.058536,150.678444
140.5,NSW,Warriewood Sewage Treatment Plant,Warriewood,-33.692025,151.299566
330.212,NSW,Rivalea (Australia) - Stock Feed Mill,Corowa,-35.969719,146.406762
117,VIC,Amcor Flexibles Asia Pacific - Preston,Preston,-37.748243,145.026604
209.847,VIC,The Northern Hospital,Epping,-37.65128,145.014288
578.0564,WA,Greenbushes,North Greenbushes,-33.823626,116.054034
145.962,WA,Murrin Murrin Compressor Station,Leonora,-28.844352,121.174893
64,VIC,Fawkner,Fawkner,-37.711234,144.962189
2264.65,NSW,Austen Quarry,Hartley,-33.576361,150.158528
8110.46,WA,Deflector Gold Project,Yalgoo,-28.655022,116.384381
461.7722,SA,Port Lincoln Power Station,Boston,-34.700024,135.8047
266.174,WA,Solenis Australia Pty Ltd,Kwinana Beach,-32.21,115.776667
157.547,VIC,Broadmeadows,Broadmeadows,-37.6771652,144.9414177
20132,NT,INPEX Operations Australia - Offshore,~820 Km Sw Of Darwin; ~210 Km Nw Of Wa Coastline,-13.9,123.3
3488.091,QLD,South Denison,Westgrove,-25.448587,148.400075
23352,QLD,Broadlea North Coal Project,Via Coppabella,-21.875,148.166667
67.9712,VIC,Lemnos Foods,Dandenong South,-38.036143,145.208683
53993.181,QLD,Collinsville Coal Mine,Collinsville,-20.557987,147.802911
57.4,VIC,West Melbourne,Laverton North,-37.82771944,144.7869889
0,VIC,Farm L1,Lethbridge,-37.985461,144.07785
2447.72,VIC,formerly Asaleo Care,Box Hill,-37.839159,145.130658
428.456871,VIC,GIRGARRE,Girgarre,-36.3940135,144.9824091
389.6773,VIC,Springvale Botanical Cemetery,Springvale,-37.948572,145.173941
511.659,QLD,Fero Group Queensland,Narangba,-27.202816,152.987902
7813.4894,QLD,Hume Masterpanel Pty Ltd,Bundamba,-27.597378,152.821759
844.657,NT,Shoal Bay Waste Management Facility,Karama,-12.387895,130.923296
92.16,VIC,Heinz Watties,Echuca,-36.14872222,144.7718333
46.74089744,TAS,Dulverton Renewable Energy Facility,Latrobe,-41.284706,146.396683
73.91497537,QLD,Bromelton (Beaudesert),Bromelton,-27.96877778,152.9291667
16.24777524,QLD,Buderim,Buderim,-26.68405556,153.1002778
171.0086147,QLD,Nambour,Nambour,-26.611184,152.981248
168.6185614,QLD,Reedy Creek,Burleigh Heads,-28.10925,153.412837
256.5441585,SA,LMS Energy - Seaford Heights,Seaford Heights,-35.20149,138.50265
5.46,SA,Moomba North Gas Satellite,Leigh Creek,-28.109968,140.20296
2211.5,VIC,Hanson Lysterfield Quarry,Lysterfield,-37.931419,145.270547
27794.89,WA,Mt Tom Price Mine,Tom Price,-22.782222,117.762222
7741.476153,TAS,Rosebery Operations,Rosebery,-41.774861,145.540352
111.21164,NSW,IVE Group Franklin Web Printing Huntingwood,Huntingwood,-33.796402,150.890827
0,VIC,Heath Hill and Yannathan Farms,Yannathan,-38.228386,145.7027516
87643.46,QLD,Poitrel Coal Mine,Via Moranbah,-22.051389,148.255278
123.742159,QLD,Lakes Creek Road Landfill,The Common,-23.375,150.535
9757.442,QLD,Meridian Seam Gas,Kianga,-24.613957,150.011695
430.7695858,SA,AAA Asphalt PTY LTD,Lonsdale,-35.09999,138.50261
668,NSW,Sydney Logistics Park,Matraville,-33.965903,151.223945
4736.466409,QLD,Cracow,Cracow,-25.295902,150.288005
572.4111,VIC,HUHTAMAKI FIBER FOODSERVICE PRESTON,Preston,-37.75182,145.025033
8135.117,WA,Dalgaranga Gold Mine,Daggar Hills,-27.846848,127.277266
609.4,WA,Karratha Quarry (Mt Regal),Maitland,-20.79489,116.762501
1332.47,WA,Queen Elizabeth II Medical Centre (QEIIMC),Nedlands,-31.968056,115.815556
97.74,VIC,Altona Bitumen Plant,Altona North,-37.84669,144.833855
602.152,VIC,Dandenong Hospital,Dandenong,-37.97649,145.21925
195.8828007,VIC,Visy Board Truganina,Truganina,-37.800693,144.740768
30294.17,WA,Ngungaju Pilgangoora Operations,Marble Bar,-21.049736,118.8948
1128.415153,NSW,LMS Woy Woy Landfill Gas,Woy Woy,-33.505144,151.292883
32428,SA,Pelican Point Power Station,Outer Harbor,-34.766413,138.506654
1749.56,VIC,Orbost GP,Corringle,-37.7981,148.4355
190.2,VIC,Opal Fibre Packaging Brooklyn,Brooklyn,-37.814649,144.855807
4460,QLD,MMG Dugald River,Cloncurry,-20.251,140.151
170.24,SA,The University of Adelaide,Adelaide,-34.92062778,138.6044194
12599.78,WA,Cooljarloo,Cataby,-30.663611,115.447778
59077.4,WA,Rail Operations Port Hedland,Port Hedland,-20.3165,118.615
23620,WA,Yarnima Power Station,Newman,-23.343812,119.710271
1710.9,QLD,Norwich Park Mine,Dysart,-22.753749,148.46093
148970,QLD,Saraji Mine,Dysart,-22.433056,148.278889
12293.4,WA,Kwinana Nickel Refinery,East Rockingham,-32.250423,115.766712
11265.782,WA,Kwinana Pigment Plant,Kwinana Beach,-32.227121,115.77518
109.57,VIC,Traralgon Asphalt Plant,Traralgon East,-38.187369,146.568253
623.178,VIC,University Hospital Geelong,Geelong,-37.79558,144.956512
3.45,VIC,NovaPower Traralgon,Traralgon East,-38.179367,146.565382
103400,NSW,Eraring Power Station,Eraring,-33.061849,151.520379
11049.048,WA,Solomon Power Station,Tom Price,-22.144167,117.958333
422.2395,VIC,Somerville Processing Plant,Somerville,-38.208564,145.182917
1082.06246,VIC,Enviropacific SOLVE Waste Soil Facility,Altona,-37.846706,144.802576
455.989,VIC,Nestle Confectionery,Campbellfield,-37.675819,144.954485
79730,QLD,QAL,Gladstone,-23.865759,151.290315
48.1465,QLD,SWQP Compressor Station 2,Eromanga,-26.95501167,143.6156651
65.75,VIC,Portland facility,Portland,-38.35425,141.61969
430.88,VIC,Vitasoy Australia,Baranduda,-36.161084,146.945658
60.81,SA,Topcoat Asphalt,Wingfield,-34.834536,138.560429
120.2399,QLD,Gympie Flare,Gympie,-26.170772,152.654467
5728.255,WA,Mt Morgans Gold Project,Laverton,-28.804389,122.2115
35.1624,NSW,LGI Brou Flare,Dalmeny,-36.144082,150.097123
23.4864,WA,Esperance Town Powerstation,Esperance,-33.847736,121.883625
677860.3,QLD,Lake Vermont,Dysart,-22.456579,148.419198
781.32,QLD,Hy-Tec Fernvale,Fernvale,-27.430414,152.648842
306.23,TAS,Macquarie Road Quarry,Campbell Town,-41.9,147.451
3087.822284,NSW,Snack Brands Australia Blacktown,Blacktown,-33.755,150.907778
4472.410405,ACT,Mugga Lane LGI Power Station,Jerrabomberra,-35.395132,149.145483
55423.08,QLD,Rocklands Copper Project,Cloncurry,-20.672343,140.365888
16783.4948,WA,CSBP Kwinana Operations,Kwinana Beach,-32.241111,115.761389
189117,QLD,Gladstone Power Station,Gladstone,-23.856484,151.218582
3283.07,QLD,East End Mine,Mount Larcom,-23.876056,150.957639
15418.17,QLD,Lady Loretta Mine,Mount Isa,-19.768546,139.066091
6589.7,WA,Onslow Salt Minesite,Onslow,-21.656,115.0986
10275.724,QLD,Bluff Coal Mine,Bluff,-23.604984,149.084575
5590,SA,Bauer Oilfield,Port Augusta,-27.757072,139.346356
2810,SA,CKS Oilfield,Via Port Augusta,-27.664014,139.398837
175228.5,WA,Gorgon Operations,Barrow Island,-20.79014,115.449486
3129.77,NT,Galiwinku Community Power Station,Galiwinku,-12.030437,135.568999
1324.73,NT,Gapuwiyak Community Power Station,Gapuwiyak,-12.501107,135.800294
1305.88,NT,Umbakumba Power Station,Umbakumba Community,-13.862322,136.812106
68101.54,NSW,Dongwha Australia Pty Ltd,Bombala,-36.9288904,149.2145738
19.1,NSW,Mawsons Berrigan Quarry,Berrigan,-35.74438,145.78566
346,NSW,Mawsons Hillview Quarry,Murrami,-34.34022,146.24742
33730,WA,Okha,Via Karratha,-19.589167,116.446944
12010,WA,North Rankin Alpha,Via Karratha,-19.584167,116.138056
11200,WA,Wandoo,Karratha,-20.128056,116.434444
36546.19,WA,Carosue Dam Operations,Via Kalgoorlie,-30.15413,122.3521
2249,QLD,Watson Road,Acacia Ridge,-27.594705,153.012722
1042.5,WA,Compressor Station 7 and Eradu Meter Station,Ambania,-28.618889,115.133056
1.96,WA,Dampier Facilities,Burrup,-20.603,116.778
7053.434,WA,Cuddingwarra Operations,Cue,-27.3777,117.807986
5397.585,NSW,Eastern Creek Recycling Ecology Park,Eastern Creek,-33.793673,150.834788
56305.17,NSW,Cowal Gold Operations,West Wyalong,-33.635234,147.405681
2699.4,VIC,AXEDALE sands quarry,Axedale,-36.773271,144.548503
2808.29,NT,Nguiu Community Power Station,Nguiu,-11.764335,130.629938
1684.79,NT,Ramingining Community Power Station,Ramingining,-12.296798,134.975708
1050.04,NT,Timber Creek Community Power Station,Timber Creek,-15.655922,130.478794
1036.38,NT,Ti Tree Community Power Station,Ti Tree,-22.124177,133.414769
20820,NSW,Galong,Galong,-34.581789,148.601209
306.1492,WA,Western Australian Specialty Alloys,Canning Vale,-32.056111,115.919722
12820.56,WA,Havieron,Telfer,-21.713,122.63
9180,SA,Callawonga Oilfield,Port Augusta,-27.918111,139.348531
2962.3701,WA,Kemerton Lithium Hydroxide Processing Plant,Wellesley,-33.20446,115.76436
3652.05011,WA,Qantas - Perth Airport,Perth Airport,-31.933056,115.961111
2461.2903,VIC,Laverton North,Laverton North,-37.831431,144.770982
221,QLD,Riverton,Riverton,-29.02217,151.479381
427,QLD,Murgon,Murgon,-26.287369,151.977704
1010,VIC,Lake Cooper Quarry,Corop,-36.51915,144.76182
55373.75,WA,Pilgangoora Operations,Marble Bar,-21.049736,118.8948
796,NSW,EDL Lucas Heights 2,Menai,-34.046331,150.969684
117,NSW,EDL Tower,Douglas Park,-34.218171,150.71619
1490,SA,Cober Pedy,Coober Pedy,-29.019492,134.769235
2877.764,NSW,Hera Mine,Nymagee,-32.11,146.332
389,VIC,Lake Boga Quarry,Kunat,-35.55172,143.5812
1050,VIC,Donnybrook,Donnybrook,-37.553125,144.9770833
2040,QLD,Mount Marrow,Mt Marrow Via Haigslea,-27.592512,152.62177
30235.45405,QLD,Mt Rawdon Operations,Mount Perry,-25.26888,151.757623
20212.807,WA,Fortnum Gold Project,Meekatharra,-25.331,118.358
6701,QLD,Spring Gully,Durham Downs,-25.947778,149.069167
74730.37,WA,Telfer Operations,Telfer,-21.714722,122.214167
260965.036,QLD,Millmerran Power,Millmerran,-27.9628,151.2782
12935.1947,QLD,Cannington Mine,Middleton,-21.859906,140.914249
2573.1895,QLD,Cannington Yurbi Rail,Cloncurry,-20.739229,140.653447
238.7,QLD,Orora Beverage Cans,Rocklea,-27.562303,153.00524
434.117,QLD,Castlemaine Perkins Ltd,Milton,-27.4678,153.0061
1757.44,SA,LADBROKE GROVE POWER STATION,Penola,-37.457222,140.781667
6590.67,SA,QUARANTINE POWER STATION,Port Adelaide,-34.779167,138.520556
41.7168,SA,Monroe Clovelly Park,Clovelly Park,-35.012753,138.572739
812.13117,WA,Harvey Beef Export Abattoir,Harvey,-33.076389,115.869444
6190,WA,WAMMCO International,Katanning,-33.673301,117.526368
1103.371391,WA,Talloman,Bushmead,-31.916111,116.005278
284.193,VIC,FBT Transwest Pty Ltd,Tottenham,-37.804668,144.85212
1104.52,VIC,Batesford Quarry,Batesford,-38.10955,144.26162
344.811,VIC,KILMANY LANDFILL,Kilmany,-38.091933,146.927147
33.0902,VIC,Eaglehawk Landfill,Eaglehawk,-36.728602,144.240935
25543.586,VIC,Offshore Facilities - Bass Strait,Golden Beach,-38.363481,147.929603
144.56,VIC,Taghleef Industries - Wodonga,Wodonga,-36.106062,146.860759
225.34,VIC,Uncle Tobys,Wahgunyah,-36.012679,146.408662
9253.08,VIC,Oaklands quarry,Oaklands Junction,-37.615189,144.83946
502.409,VIC,Seqirus (Parkville),Parkville,-37.779327,144.947092
2556.36,TAS,BRITTON BROS P/L,Smithton,-40.857149,145.140484
671.5,TAS,Hanson Hobart Quarry,Lindisfarne,-42.833513,147.378367
467.0092,NSW,Casella Winery Yenda,Yenda,-34.246113,146.204166
1184.27,NSW,Solvay Interox Pty Ltd,Banksmeadow,-33.954763,151.212195
497.27,NSW,Humes Blacktown,Rooty Hill,-33.761221,150.851051
2543,NSW,DP World Sydney,Port Botany,-33.972272,151.217833
184,NSW,Qenos Hydrocarbon Terminal,Port Botany,-33.975016,151.220482
70,NSW,Golden Grove Piggery,Young,-34.315122,148.451208
2492.177,SA,IWS Northern Balefill,Lower Light,-34.498313,138.380704
823.3,NSW,Williamsdale Quarry,Williamsdale,-35.550734,149.160948
572.74,NSW,Nestle Purina Pet Care,Blayney,-33.5211701,149.236775
125.8,NSW,Jamestrong Packaging Australia Pty. Ltd. Taree,Taree,-31.883833,152.424547
535.3,WA,Hazelmere Plant and Depot,Hazelmere,-31.911944,116.008333
182.311,ACT,CAPITAL LINEN SERVICE,Canberra,-35.221854,149.140782
110.335079,QLD,Visy Glass Brisbane,South Brisbane,-27.472889,153.011195
2209.64,WA,Humes Welshpool,Welshpool,-31.998889,115.969167
114.97,QLD,Sarina Ethanol Distillery,Sarina,-21.428092,149.216062
7503.8265,QLD,Sunland Proteins,Landsborough,-26.811339,152.961914
84.4112,QLD,Carole Park,Carole Park,-27.620673,152.933394
59.518692,QLD,PEANUT COMPANY OF AUSTRALIA LTD,Kingaroy,-26.539869,151.841154
34,QLD,Caboolture Asphalt Plant,Caboolture,-27.08286,152.98369
106.27,QLD,Bli Bli,Bli Bli,-26.609156,152.977124
13532.6476,QLD,Dinmore Abattoirs,Dinmore,-27.5844,152.833972
747.2964,QLD,Wainui Feedlot,Bowenville,-27.19,151.27
2483.86,QLD,Nerimbera quarry,Nerimbera,-23.391768,150.594237
113.205,SA,Christies Beach Wastewater Treatment Plant,Christies Beach,-35.125907,138.470883
84785.41,QLD,Commodore Coal Mine,Millmerran,-27.951111,151.280833
213.51,QLD,Bremer Park,Bundamba,-27.5922,152.825
336.6,TAS,Old Surrey Road Cheese Factory,Burnie,-41.087761,145.910587
6672.4306,QLD,Maryborough Hardwood Dry Mill,Maryborough,-25.545511,152.714189
273.8905,TAS,Cascade Brewery and Beverages,South Hobart,-42.895805,147.292264
1808.784,VIC,Bairnsdale Power Station,Bairnsdale,-37.845372,147.580938
53.88,NSW,Knauf Camellia,Camellia,-33.818899,151.040979
11.016025,WA,Exmouth Power Station (Private),Exmouth,-21.946301,114.124621
178.5786,SA,Lyell McEwin Hospital,Elizabeth Vale,-34.74757222,138.6645528
2159.073,QLD,Grassdale,Dalby,-27.4168,151.15
129.9032,VIC,Eye & Ear on the Park,East Melbourne,-37.8116,144.977
681.604,TAS,Bridgewater Quarry,Bridgewater,-42.72,147.25
147.691,WA,St John of God Hospital Murdoch,Murdoch,-32.06756376,115.8452347
118.098,QLD,Dalby Compressor Station,Dalby,-27.19633736,151.2085685
3505.1,NSW,Rangers Valley Feedlot,Glen Innes,-29.506296,151.729069
36337.36,NSW,Nestle Beverages Smithtown,Smithtown,-31.021174,152.941315
124.448,VIC,Polyfoam,Dandenong South,-37.993213,145.199381
2165.79,QLD,Maryborough Landfill,Maryborough,-25.507,152.709
3148.11,QLD,"""Jackson""",Quilpie,-27.635716,142.400117
1489.7661,QLD,"""Moonie""",Moonie,-27.758992,150.245266
4452.25,SA,Pt Bonython Oil,Whyalla,-32.989097,137.769122
556.3468,SA,Moomba South Central,Leigh Creek,-28.198511,140.18654
249.5261,QLD,Rockhampton Abattoir,Nerimbera,-23.42223,150.601988
4099.24694,WA,Karratha Power Station,Karratha,-20.762895,116.836997
95.37023877,QLD,Suntown Closed Landfill,Arundel,-27.93614167,153.3718222
1478.1158,VIC,ETEX AUSTRALIA PTY LTD,Altona,-37.859,144.799
362.6558375,VIC,G & K O'CONNOR PTY LTD,Pakenham,-38.114626,145.496233
6758.34,TAS,TT-Line Devonport,Devonport,-41.1799954,146.3662551
73670,QLD,Pioneer Mill,Brandon,-19.560278,147.328528
249438,QLD,Inkerman Mill,Home Hill,-19.643,147.401278
3011.92,WA,Banksia Road Landfill Facility,Crooked Brook,-33.428981,115.789853
126.68,VIC,Shepparton,Shepparton,-36.363779,145.426916
443.627,SA,Thomas Foods International Murray Bridge,Murray Bridge,-35.107778,139.2625
1937,NSW,"Patrick Terminal, Port Botany",Port Botany,-33.967975,151.210917
524,WA,"Patrick Terminal, Fremantle North Quay",North Fremantle,-32.031509,115.748649
68.575788,NSW,Ferrero Australia Pty Ltd,Lithgow,-33.480007,150.139024
42,QLD,Luggage Point WWTP,Myrtletown,-27.380596,153.150174
342.22,SA,HUMES POORAKA,Pooraka,-34.816147,138.639221
1037.476,NSW,Boral Currabubula Quarry,Currabubula,-31.292897,150.76805
39.3624,QLD,Orrcon Steel,Salisbury,-27.546791,153.025321
40,VIC,Moolap Asphalt,Moolap,-38.162717,144.431177
1302.44,NSW,Visy Pulp and Paper Mill Tumut,Tumut,-35.296485,148.138463
1454,NSW,Weston Aluminium,Weston,-32.809024,151.477222
69.264,VIC,Labelmakers - Somerton,Somerton,-37.633289,144.944665
161.0137,QLD,Good Stuff Bakery,Carrara,-28.0336,153.3534
803,WA,Eneabba East,Eneabba,-29.876667,115.285278
92.8906,WA,Shire of Broome Landfill Facility,Waterbank,-17.8985,122.2366
2630,QLD,Condamine Power Station,Via Miles,-26.668246,150.269838
1.44924,NSW,Culcairn Compressor Station,Culcairn,-35.671091,147.016415
70.56,VIC,Amcor Flexibles Asia Pacific - Moorabbin,Moorabbin,-37.947072,145.060783
3895.38,SA,Whiteheads Timber Sales,Mount Gambier,-37.84467,140.80667
254.6017306,SA,VISY BOARD GEPPS CROSS,Gepps Cross,-34.840629,138.598264
79.0413,NSW,Heinz Wagga Wagga,Wagga Wagga,-35.071454,147.414453
390.87,VIC,The Royal Childrens Hospital,Parkville,-37.794508,144.950352
142.1340169,VIC,FAWKNER CREMATORIUM AND MEMORIAL PARK,Fawkner,-37.710695,144.960003
1060.313,SA,Murray Bridge Quarry,Murray Bridge,-35.107671,139.210213
5419.6,NSW,Mandalong Mine,Mandalong,-33.118935,151.463099
27.407,NSW,Malt Sydney,Minto,-34.035899,150.840543
410.76,VIC,Box Hill Hospital,Box Hill,-37.811953,145.119985
10751.1,QLD,Australian Country Choice,Cannon Hill,-27.4531,153.09
219.37,QLD,Coogee Queensland Chlor Alkali Pty Ltd,Lytton,-27.420608,153.149837
126697.305,NSW,Ravensworth Mine Complex,Ravensworth Via Singleton,-32.446667,151.021944
7824,SA,Flinders Adelaide Container Terminal,Outer Harbor,-34.770861,138.491794
17102.92,WA,Simcoa Operations Pty Ltd,Wellesley,-33.218889,115.752222
11548.535,QLD,Southern Pacific Sands,Ningi,-27.078974,153.089858
9.856,WA,PGP - Caversham Meter Station,Caversham,-31.845658,115.981731
285.2,VIC,Opal Fibre Packaging Scoresby,Scoresby,-37.901134,145.233724
957.127,QLD,Paverock Quarry,Childer,-25.168225,152.367368
791.738,QLD,Hogan's Pocket Landfill,Eton,-21.355,148.967
84399,QLD,Coppabella Coal Mine,Via Nebo,-21.865952,148.421924
67.3125,VIC,Pental Limited,Shepparton,-36.368049,145.425317
78620.9709,QLD,Marian Sugar Mill,Marian,-21.142895,148.940535
2334,VIC,Rockbank Quarry,Rockbank,-37.679227,144.669942
150.459,VIC,KINGSTON CENTRE,Cheltenham,-37.95413,145.076544
1664.02,NSW,Teven Quarry,Teven,-28.839843,153.488649
700,WA,Boral Asphalt WA,Welshpool,-31.991111,115.971111
89398.188,NT,GEMCO Port Facility,Groote Eylandt,-13.856827,136.420926
107.1474,VIC,Brimbank,Deer Park,-37.772944,144.790362
109013.1,QLD,Jellinbah Mine,Via Bluff,-23.398845,148.943098
4799.201664,NSW,LMS Eastern Creek Renewable Energy Facility,Eastern Creek,-33.8125,150.861389
1642.81624,QLD,Badu Island,Badu Island,-10.163611,142.163333
6642.096,QLD,Bamaga,Bamaga,-10.892972,142.392778
1651.32441,QLD,Camooweal,Camooweal,-19.919472,138.123778
673.8,QLD,Northern Oil Refinery,Yarwun,-23.81,151.1481
76.644,NSW,Westmead Private Hospital,Westmead,-33.802891,150.982391
5837,NSW,Metropolitan Collieries Pty Ltd,Helensburgh,-34.187767,150.992103
7383.844,QLD,MMG - Karumba Port,Karumba,-17.498056,140.836944
1361.17,NT,Mereenie Plant,Alice Springs,-23.995794,131.553504
140.267,NSW,Linen Services Australia Rosebery,Rosbery,-33.911714,151.207953
399.8,NSW,Liverpool Sewage Treatment System,Liverpool,-33.920022,150.937134
749.6,NSW,Cronulla Sewage Treatment Plant,North Cronulla,-34.030803,151.163898
1894,NSW,North Head Sewage Treatment Plant,Manly,-33.808463,151.302852
167.5,NSW,Shellharbour Sewage Treatment System,Shellharbour,-34.569139,150.865198
714.1198333,SA,The Union Dairy Company,Penola,-37.456625,140.833279
538.5,NSW,West Nowra Recycling Facility & Landfill,Mondamia,-34.884848,150.551991
335,NSW,Rivalea (Australia) - Corowa,Corowa,-35.97335,146.331129
32.4,NSW,Rivalea (Australia) - Bungowannah,Bungowannah,-36.033229,146.795183
73.168,WA,Kemerton Peak Lopping Power Station,Wellesley,-33.21183,115.760705
45171.472,NSW,Liddell Coal Operations,Ravensworth,-32.408743,151.030951
130.0201,NSW,Inghams Lisarow Further Processing Plant,Lisarow,-33.376631,151.383486
176376.22,NSW,Mount Pleasant Operation,Muswellbrook,-32.259411,150.837135
308,VIC,Mt Helen Campus,Mount Helen,-37.62694444,143.8908333
5.9582,VIC,Mildura Airport,Mildura South,-34.23244444,142.0855833
3.844,NT,Groote Eylandt Airport,Groote Eylandt,-13.973256,136.460878
1.16688,QLD,Hervey Bay Airport,Hervey Bay,-25.316189,152.890247
85.763,VIC,CopRice Tongala,Tongala,-36.2527392,144.9321355
480.60243,NSW,"UNSW Sydney, Kensington Campus",Kensignton,-33.915265,151.228287
3191.97,WA,Wespine Industries Pty Ltd,Dardanup,-33.388611,115.717778
20.352393,WA,Gosnells Landfill,Orange Grove,-32.022813,116.012825
455.9795,VIC,Mars Chocolate Australia,Wendouree,-37.519424,143.816028
543.1952,QLD,Etex - Bundaberg,Burnett Heads,-24.76773,152.388422
5141.17,WA,Varanus Island Operations,Onslow,-20.651389,115.576667
439.4,SA,KORVEST LTD,Kilburn,-34.850833,138.590556
160.1650912,NSW,IVE Group Bluestar Web Silverwater,Silverwater,-33.834767,151.042327
42201.94,WA,Huntly Mine,Dwellingup,-32.624167,116.057778
15567.97,WA,Willowdale Mine,Waroona,-32.925,116.0075
1097.26,NSW,Hy-tec Yarrabee Road Quarry,Cooperabung,-33.77,150.99
28615.06,WA,Bluewaters Power Station No 1&2,Palmer,-33.330842,116.231109
9194.413,NSW,Woodlawn Bioreactor,Tarago,-35.05417,149.562378
111.850425,QLD,City Links,Carrara,-28.028548,153.355204
5.36,WA,Pinga Creek Meter Station,Port Hedland,-20.563305,118.280699
138.2,VIC,Dandenong Asphalt Plant,Dandenong South,-38.0059,145.214188
895.149751,QLD,Bunya LFGE,Bunya,-27.378139,152.939928
128.2787055,VIC,Somerton plant,Somerton,-37.636772,144.958737
47.966,VIC,St Arnaud,St Arnaud,-36.62007,143.2585
72.0115,QLD,Balter Brewing,Currumbin,-28.14274,153.470641
171.63,SA,Wasleys,Wasleys,-34.441667,138.625
2190.43,TAS,Flinders Island Power Station,Whitemark,-40.116051,148.029235
259.393152,NSW,LMS Flare Cessnock,Cessnock,-32.8205,151.387878
203.3055759,TAS,Copping Renewable Energy Facility,Copping,-42.841419,147.771369
6075.8,SA,MILLICENT MILL,Millicent,-37.674541,140.430696
425.95938,NSW,Weir Minerals Artarmon,Artarmon,-33.814285,151.179437
18909.13,QLD,Scotchy Pocket Quarry,Scotchy Pocket,-26.04055,152.56722
137916.05,WA,West Angelas Mine,Newman,-23.175278,118.758611
90834.6,WA,Yandicoogina Mine,Newman,-22.756389,119.225
6045.03,WA,Port Hedland Salt Operations,Port Hedland,-20.338889,118.639444
36.8314,VIC,Euroa Compressor Station,Euroa,-36.727,145.538
2575.18,VIC,Werribee Manor Quarry,Mambourin,-37.9222,144.5803
80.32,ACT,Canberra Bakery,Fyshwick,-35.33397,149.184159
4.4,SA,Port Bonython Fuels Pty Ltd,Port Bonython,-32.976817,137.76201
122,VIC,WIMMERA BASE HOSPITAL,Horsham,-36.712562,142.208673
111.042,NSW,Baiada Tamworth Processing Plant,Tamworth,-31.094083,150.913044
749.991424,QLD,Toowoomba LFGE,Cranley,-27.505708,151.927469
8.180526956,SA,Caroline LFG Flare Facility,Caroline,-37.888038,140.894995
522.2671594,SA,Northward Fill,Inkerman,-34.28528611,138.2600361
148,VIC,GOULBURN VALLEY HEALTH - SHEPPARTON CAMPUS,Shepparton,-36.363468,145.403534
156.22,NSW,LGI Whylandra Flare,Whylandra,-32.20917,148.488566
6836.980323,NSW,Visy Paper Smithfield,Smithfield,-33.85063,150.948107
162.061,NSW,Lactalis Lidcombe,Lidcombe,-33.861293,151.056347
145040,QLD,Blackwater Mine,Blackwater,-23.73,148.791667
182545.5,WA,Nickel West Kalgoorlie Smelter,Feysville,-30.874167,121.483056
37075.034,NT,Ranger Operations,Jabiru,-12.682448,132.924191
2190.43,TAS,King Island Power Station,Currie,-39.938672,143.891998
28782.39506,WA,Iron Bridge Operations,Marble Bar,-21.247872,119.053439
8633,VIC,Alpine MDF Ltd,Wangaratta,-36.334349,146.372811
308.37,VIC,ROWVILLE,Rowville,-37.928154,145.221362
203.84,VIC,BENDIGO,Bendigo,-36.739675,144.284606
645.821,VIC,Longwarry Food Park,Longwarry,-38.112929,145.772138
224581.4517,WA,Cloudbreak,Mulga Downs,-22.326266,119.405736
226437.6181,WA,Christmas Creek,Newman,-22.39484496,119.850233
35769.4879,WA,Pinjar Gas Turbine Station,Pinjar,-31.559167,115.820833
31059.446,WA,Cockburn Power Station,Naval Base,-32.2,115.773889
209.706,WA,Fiona Stanley Hospital,Murdoch,-32.070274,115.846421
14143.13,VIC,QENOS PTY LTD,Altona,-37.850816,144.813278
0,VIC,Shepparton Wastewater Management Facility,Shepparton,-36.311686,145.377477
4873.125153,WA,Beyondie Sulphate of Potash Project,Kumarina,-24.750273,120.34918
366.515584,VIC,PETER MACCALLUM CANCER INSTITUTE,Melbourne,-37.8001648,144.9564243
2457.22,VIC,Ballarat,Wendouree,-37.52222222,143.8123889
3283.13,QLD,ORECO GROUP,Isis Central,-25.198123,152.202715
306.7957,VIC,Taylors Rd Landfill,Dandenong South,-38.043503,145.232587
1800,QLD,Yancoal - Boonal,Blackwater,-23.58414,148.96785
24.055344,WA,Kununurra Back Up Power Station,Kununurra,-15.77938,128.73973
2441.18,QLD,Fishermans Landing,Gladstone,-23.7925,151.1545
16600,QLD,Blair Athol,Clermont,-22.688152,147.518598
77218.141,WA,Wheatstone GTP,Talandji,-21.698143,115.001832
2450,VIC,Otway,Waarre,-38.571887,143.038759
76826.24,WA,Tropicana Gold Mine,Plumridge Lakes,-29.240368,124.540442
7776.928,WA,Keysbrook Mineral Sands Mine,North Dandalup,-32.471743,115.925345
4353.49494,VIC,Stawell Gold Mine,Stawell,-37.058679,142.800744
15370.28136,WA,Warrawoona Gold Project,Marble Bar,-21.33792222,119.8917528
1321.207,QLD,Great Australia Mine,Cloncurry,-20.728787,140.515663
3687.539547,QLD,Orica Yarwun Site,Yarwun Via Gladstone,-23.8362,151.1667
323,NSW,Mawsons Warburn Quarry,Tharbogang,-34.23079,145.91553
143965,WA,Karratha Onshore Gas Treatment Plant,Via Karratha,-20.602261,116.773734
111.79,WA,Compressor Station 10,Kwinana Beach,-32.225278,115.78
59655.56,QLD,Glencore Coal - Clermont (Open Cut) Mine,Clermont,-22.709113,147.62937
2383.3,VIC,EPPING RECYCLING,Epping,-37.651186,144.984113
1458.36,NT,Milingimbi Community Power Station,Milingimbi,-12.104838,134.910991
2070.78,NT,Gunbalanya Community Power Station,Oenpelli,-12.3302,133.051
1700.71,NT,Yuendumu Community Power Station,Yuendumu,-22.252232,131.798915
10569.21,WA,Bronzewing Gold Mine,Leinster,-27.379182,121.012054
10824.93,WA,Golden Grove Operations,Yalgoo,-28.747778,116.939167
971,VIC,SHEPPARTON SITE,Shepparton,-36.376003,145.418219
10835.131,WA,Cosmos Nickel Operations,Leinster,-27.591944,120.580556
13565.36,QLD,Golden Circle Northgate,Northgate,-27.38427,153.073324
56570,NT,Gove Refinery,Nhulunbuy,-12.186586,136.687267
61.5,WA,Red Hill,Red Hill,-31.831389,116.099167
1400,WA,Halls Creek,Halls Creek,-18.2323416,127.66194
3070,NT,EDL Jabiru,Jabiru,-12.653869,132.853007
457,VIC,Glenrowan Quarry,Glenrowan,-36.46965,146.22895
73.1,VIC,Mansfield Quarry,Mansfield,-37.08211,146.08784
17939.42,WA,Sino Iron Project - Port Area,Cape Preston,-20.84,116.21
25876.912,WA,Bald Hill Tantalum-Lithium,Widgiemooltha,-31.511436,122.182055
13900,QLD,Gibson Island,Murarrie,-27.433889,153.123948
4130.8973,WA,Carina Rail Facility,Boorabbin,-30.81656327,120.3072961
49391.28,WA,Koolyanobbing Iron Ore Operations,Koolyanobbing,-30.815,119.531111
7528,NT,Granites Operations,Alice Springs Roadside Delivery,-20.5427,130.3154
116,NSW,Horsley Park Meter Station,Horsley Park,-33.830409,150.865118
222,NSW,Michelago Compressor Station,Michelago,-35.687532,149.19122
101,NSW,MOMS and MCS (Munmorah Offtake and Metering Station and Compressor Station),Wyee,-33.195,151.467
37407.63,WA,Koolan Island Operations,Derby,-16.141855,123.756572
1532.856,WA,Carbine (Bullant and Porphyry) Operations,Mount Burges,-30.531097,121.061511
28.3,NSW,HEZ,Abermain,-32.836059,151.450427
189.3528277,VIC,BALLARAT BASE HOSPITAL,Ballarat,-37.55925,143.8467222
103.8672547,VIC,Queen Elizabeth Centre,Ballarat,-37.56441667,143.8436667
133533,NSW,Mount Thorley Warkworth Operations,Mount Thorley Via Singleton,-32.64319,151.085868
386.2908,WA,Stag Operations,Karratha,-20.29021667,116.2752778
18360,NSW,Stratford,Stratford,-32.13234,151.960706
736.9895,WA,Thevenard Island Retirement,Thevenard Island,-21.459722,115.020833
90989.066,QLD,Carmichael Coal Mine,Belyando,-21.95,146.629
208.533555,QLD,CQMS Castings,Maryborough,-25.544525,152.706631
42575,QLD,South Johnstone Mill,South Johnstone,-17.605901,145.991176
3483.569031,SA,SA PINE,Monarto South,-35.122703,139.16802
706.203,SA,TARAC SAMUEL ROAD,Nuriootpa,-34.475,138.971389
563.96,WA,CSR Gyprock - Welshpool,Welshpool,-31.988889,115.965833
636.9793654,VIC,LA TROBE UNIVERSITY,Bundoora,-37.719625,145.054945
588.749,VIC,Austin Hospital,Heidelberg,-37.756404,145.056693
134.424,VIC,CCA Moorabbin,Moorabbin,-37.944597,145.063579
112.323,VIC,CSIRO - Clayton Laboratories,Clayton,-37.904563,145.130474
313.79,VIC,Thomas Foods International Stawell PTY LTD,Stawell,-37.053728,142.75629
177.854,VIC,GB GALVANIZING - BAYSWATER,Bayswater,-37.820966,145.297554
0.17,VIC,Boneo Water Recycling Plant,Boneo,-38.408074,144.882468
4695.242,VIC,Boral Quarry Deer Park,Truganina,-37.784378,144.731214
3313.33,VIC,Werribee Quarry,Werribee,-37.93841,144.592224
2790.78,TAS,Liberty Bell Bay,Bell Bay,-41.130892,146.849881
215.92,VIC,Orora Beverage Cans,Dandenong,-38.00193,145.224475
570,TAS,Hellyer Gold Mines Pty Ltd,Waratah,-41.577965,145.731
991.5,NSW,Qenos Olefines and Site Utilities Plants,Matraville,-33.957701,151.223104
1073,NSW,Qenos Alkathene and Alkatuff Plants,Matraville,-33.957701,151.223104
187640,NSW,BlueScope Steel Port Kembla Steelworks,Port Kembla,-34.463395,150.887662
20714.9,NSW,Bloomfield Colliery,Ashtonfield,-32.796536,151.569052
129.394,NSW,PGH Bricks and Pavers Albury,Jindera,-35.981962,146.8908
13027,NSW,Wambo Mine,Warkworth,-32.568122,150.991427
107,NSW,Dead Horse Gully Piggery,Young,-34.343199,148.442353
12048.6,NSW,AKD Tumut Sawmill,Tumut,-35.30124,148.201222
7167.573679,NSW,Tritton Mines,Hermidale,-31.397605,146.723397
610,NSW,Austral Bowral,Bowral,-34.484643,150.409809
7656.9,NSW,Perilya Broken Hill Operations,Broken Hill,-31.969615,141.467677
204.33,NSW,ARYZTA Liverpool,Liverpool,-33.911306,150.923361
99.43392,ACT,BLACK MOUNTAIN,Acton,-35.274838,149.11224
28.9858,QLD,Maroochydore Sewage Treatment Plant,Maroochydore,-26.651285,153.056338
32367.7427,QLD,Tuan Mill,Tuan,-25.640829,152.794504
27378,SA,Birkenhead Plant,Birkenhead,-34.832912,138.503458
5054,SA,Angaston Special Products,Angaston,-34.502222,139.030833
13818.8,QLD,Injune Cypress,Injune,-25.834124,148.564142
133.226,QLD,Industrial Galvanizers Brisbane (Carole Park Site),Carole Park,-27.61554,152.931074
626.84,QLD,Sun Metals Zinc Refinery,Stuart,-19.332434,146.889118
994.11,QLD,Townsville Port,Townsville,-19.252611,146.831813
45.28,QLD,EGR,Salisbury,-27.544444,153.0275
383.684,SA,TEYS AUSTRALIA NARACOORTE PTY LTD,Hynam,-36.93637,140.825767
1048.797,QLD,Boral Quarries Petrie,Whiteside,-27.235505,152.908394
1178.152,QLD,Boral Quarries Narangba,Narangba,-27.176592,152.883908
1215.202,QLD,Boral Quarries Ormeau,Kingsholme,-27.821889,153.219363
1310.16,QLD,Bli Bli quarry,Nambour,-26.608375,152.978593
1.01,WA,Furnace Industries,Malaga,-31.860556,115.883889
487.709,WA,Paraburdoo Compressor Station,Innawanga,-23.3398015,117.5801613
119,QLD,Knauf Plasterboard Pinkenba,Pinkenba,-27.4144194,153.137538
1419.1109,VIC,Tatura Milk Industries,Tatura,-36.440694,145.235016
3418.494,VIC,D & R Henderson Pty Ltd,Winton,-36.526866,146.040633
0,VIC,Tatura Wastewater Management Facility,Tatura,-36.475749,145.228143
1538.32,QLD,Blue Rock Quarry,Cedar Creek,-27.835928,153.187556
474.34,VIC,REID BROS TIMBER PTY LTD,Yarra Junction,-37.790769,145.621477
17392.48457,NSW,Girilambone Mine,Girilambone,-31.26079186,146.8800281
184.3161287,QLD,Allnex Resins Wacol,Wacol,-27.591945,152.928868
1073.97,WA,Kwinana Operations,Kwinana Beach,-32.210556,115.775278
88.8727,NSW,Unilever North Rocks,North Rocks,-33.775147,151.0157
22320.46,SA,Moomba Plant,Leigh Creek,-28.1124,140.205428
896.77,SA,Merrimelia Gas,Leigh Creek,-27.7699,140.126258
11035.1372,WA,Newgen Neerabup Partnership,Neerabup,-31.6716,115.8021
142.872,WA,Joondalup Health Campus,Joondalup,-31.738141,115.772629
93.2422,VIC,Prairie,Prairie,-36.299046,144.138347
18821.6433,TAS,Longford,Longford,-41.587405,147.114323
57.9616,WA,Graincorp Oilseeds Pty Ltd,Pinjarra,-32.639556,115.850143
45.88555033,QLD,Molendinar Closed Landfill,Molendinar,-27.98218056,153.3557278
30,VIC,Boral Asphalt Ballarat,Ballarat,-37.51961111,143.8499167
109.958,VIC,La Ionica,Thomastown,-37.691076,144.998192
5776.9548,TAS,Port of Burnie,Burnie,-41.05388404,145.9079184
1049.4631,QLD,Yatala Brewery,Yatala,-27.755433,153.234616
227.93,NSW,Enviroguard Erskine Park Landfill,Erskine Park,-33.818542,150.781343
2013.26,NSW,Boral Talbragar Quarry,Dubbo,-32.186267,148.628447
721.22,NSW,Boral Recycling Widemere,Wetherill Park,-33.832556,150.912623
120.98,TAS,Nook Quarry,Nook,-41.31,146.33
214.418,VIC,Koonwarra Landfill (New),Leongatha South,-38.561897,145.923167
1066.3049,QLD,Inland Oil Exploration PL 98 Joint Venture,Windorah,-25.5430556,141.6313889
280.738,NSW,Daniels Health,Silverwater,-33.836667,151.046428
21600,QLD,Rochedale,Rochedale,-27.5556,153.115
643,WA,Fremantle Terminal,North Fremantle,-32.047417,115.739604
3451,QLD,Windibri CPP,Condamine,-26.876817,150.319199
215.1689636,WA,Wesfeeds Pty Ltd,Bentley,-31.998333,115.925833
57653.235,NSW,United Collieries,Warkworth,-32.547889,150.992694
416.189,WA,Dunsborough Waste Facility,Naturaliste,-33.618032,115.05548
86.4615,VIC,Echuca Regional Health,Echuca,-36.137269,144.748863
5375.88,NSW,Lynwood Quarry,Lynwood,-34.718512,149.981917
1232.426,QLD,Boral Quarries Dundowran,Dundowran,-25.2932,152.753
1772.1406,WA,Malt Perth,Forrestfield,-31.969722,115.986944
97.92,TAS,Skretting Australia,Cambridge,-42.831572,147.451339
70.8,VIC,Amcor Flexibles Asia Pacific - Oakleigh,Oakleigh,-37.904393,145.096025
1603.16,VIC,HASTINGS,Hastings,-38.283716,145.206197
413.971,VIC,SUNSHINE WEST SITE,Sunshine West,-37.815615,144.810454
33.12,QLD,Production St Smallgoods Wacol,Wacol,-27.589916,152.931373
151.95,SA,Compressor Station 3,Copley,-30.349472,139.654275
142.31,SA,Compressor Station 6,Coglin,-32.823402,138.91139
97.63,SA,Whyte Yarcowie Compressor Station,Whyte Yarcowie,-33.234704,138.809569
318.03,WA,Naval Base Plant,Naval Base,-32.204847,115.778125
29.6,WA,"GGT, Murrin Murrin Delivery/Meter Station",Laverton,-28.768631,121.897788
907.32,QLD,Roma Power Station,Roma,-26.577395,148.840011
193.449,WA,Hollywood Private Hospital,Nedlands,-31.969,115.81
896.416,VIC,Abbotsford Brewery,Abbotsford,-37.808641,145.000973
939.578,WA,Three Springs Talc Operations,Three Springs,-29.507222,115.858056
174393.1994,QLD,Farleigh Sugar Mill,Farleigh,-21.100117,149.102481
188.16,WA,Crawley Campus,Crawley,-31.980769,115.817034
399.02,WA,Albany Quarry,Albany,-34.945777,117.849595
405.5,WA,Esperance Quarry,Coramup Hill,-33.768997,121.91853
144.9287,VIC,Box Hill,Box Hill,-37.811775,145.137029
558.2,NSW,Thomas Foods International Tamworth,Tamworth,-31.072203,150.853292
36.7941,VIC,IXOM Deer Park,Deer Park,-37.778018,144.775687
980.06208,NSW,LMS Albury Renewable Energy Facility,Hamilton Valley,-36.029825,146.897619
205.000646,WA,South Cardup Renewable Energy Facility,Whitby,-32.26638,116.0138
435.648,NSW,Boral Macksville Quarry,Macksville,-30.746943,152.9208
2733.4736,QLD,Doomadgee,Doomadgee,-17.940744,138.825736
2661.472,QLD,Gununa,Gununa,-16.666389,139.176667
2215.7328,QLD,Kowanyama,Kowanyama,-15.4825,141.741944
476.776,WA,GGP. Turee Creek Compressor Station,Newman,-23.5294,119.0497
72.9078,VIC,Castlemaine Health,Castlemaine,-37.053433,144.213627
80.611,NSW,North Shore Private Hospital,St Leonards,-33.82081,151.189811
13.474,WA,Orica Pippingarra Plant,Port Hedland,-20.415,118.692
76.079,NSW,BOC Gases Port Kembla,Cringila,-34.463789,150.868571
40914,QLD,Curtis Island LNG Plant,Curtis Island,-23.76936,151.19882
1456.8,QLD,WIGGINS ISLAND COAL EXPORT TERMINAL PTY LTD,Callemondah,-23.834868,151.203179
151.02,NSW,Valla Quarry,Valla,-30.596622,152.945695
9340,SA,Austral Bricks,Golden Grove,-34.791423,138.730597
525.79,QLD,Humes Ipswich,Swanbank,-27.636606,152.812231
109.589,VIC,Casey Hospital,Berwick,-38.0423342,145.3460756
249.467,VIC,MITCHELL LANDFILL,Seymour,-37.019271,145.078861
633.59,TAS,SAPUTO DAIRY AUSTRALIA - Smithton,Smithton,-40.862114,145.14031
763.84698,VIC,Melbourne Airport,Melbourne Airport,-37.673355,144.843397
4417.751091,QLD,Osborne Operations,Cloncurry,-22.09365,140.58489
80.2,NSW,SAPUTO DAIRY AUSTRALIA - Erskine Park,Erskine Park,-33.81964,150.776315
19.73,NSW,Alexandria Asphalt Plant,Alexandria,-33.915866,151.186407
2013.97,WA,Norseman Gold Mine Powerstation,Norseman,-32.196183,121.794281
95.0765,VIC,Springvale Site,Springvale,-37.933155,145.147622
206.086,NSW,Prysmian Australia Liverpool,Liverpool,-33.926643,150.928931
4844.4,QLD,Hanson Wolffdene Quarry,Wolffdene,-27.783726,153.199386
819.8,WA,Hanson Byford Quarry,Whitby,-32.266944,116.021389
1899.27152,VIC,KOROIT SITE,Koroit,-38.293628,142.37228
120.46,VIC,Citywide North Melbourne Asphalt plant,North Melbourne,-37.79928,144.9391
37340.67,QLD,Curtis Island GLNG Plant,Curtis Island,-23.781719,151.213195
134.8,NSW,Riverstone Sewage Treatment Plant,Vineyard,-33.654393,150.84751
961.2,NSW,Bondi Sewage Treatment Plant,Bondi,-33.885688,151.284456
376.4741954,QLD,Visy Board Yatala,Yatala,-27.723766,153.2526986
153.4,WA,St John of God Hospital Subicao,Subiaco,-31.941111,115.827222
76552.06,SA,BHP Olympic Dam,Roxby Downs,-30.439167,136.871944
10.65,NSW,Woodburn Quarry (Buntings Pit),Woodburn,-29.10633,153.350915
2714.4,NSW,Maxwell Underground Coal Mine Project,Muswellbrook,-32.3544722,150.920556
76600,WA,Prelude FLNG,Broome,-13.783333,123.316667
312,QLD,Mobile Asphalt Plant T300,Caboolture,-27.041,152.98138
63.87906343,TAS,Glenorchy Waste Disposal Facility,Glenorchy,-42.84160112,147.2543145
0.105,VIC,Mt Martha Water Recycling Plant,Mount Martha,-38.267932,145.063708
133.004,QLD,Greenslopes Private Hospital,Greenslopes,-27.512798,153.046323
4943.71,WA,Worsley Alumina Port,Bunbury,-33.320739,115.667217
103.24,VIC,TOLLMAN PTY LTD,Laverton North,-37.83765,144.784123
185.471,SA,Coopers Cogeneration,Regency Park,-34.872662,138.5726
114.304,VIC,Sale Linen Service,Sale,-38.112659,147.078844
128.7,SA,BERRI ESTATES LTD,Glossop,-34.281018,140.543826
125.367516,QLD,Suntown,Arundel,-27.92293889,153.3702778
55.62,VIC,Warrnambool asphalt plant,Warrnambool,-38.3750084,142.4617247
16,NSW,Ausperl Padstow,Padstow,-33.936823,151.0338
494904.8,WA,Roy Hill Mine,Newman,-22.446389,119.933333
1668.5,WA,Roy Hill Port (Boodarie),Boodarie,-20.343908,118.532437
13860.57441,WA,Boonanarring Operations,Boonanarring,-31.19,115.813
572.27823,VIC,Campbell Soup,Lemnos,-36.340537,145.463506
12291.749,NSW,Glencore Coal - Glendell (Open Cut) Mine,Ravensworth Via Singleton,-32.398889,151.065833
72544.682,NSW,Glencore Coal - Mt Owen and Ravensworth East (Open Cut) Mine,Ravensworth,-32.393157,151.090601
82.42,NSW,Boral Asphalt Enfield,Greenacre,-33.894976,151.067299
429.332544,NSW,LMS Whytes Gully,Kembla Range,-34.463578,150.800669
167.2908,SA,Seven Point Pork,Port Wakefield,-34.141816,138.182631
1477.27,NSW,Eastern Creek Asphalt Plant,Eastern Creek,-33.79753,150.819416
3115.17,WA,Red October Mine Site,Via Leonora,-29.21652,122.415518
431.456,WA,Ferogalv,Kewdale,-31.99,115.980278
62.79300487,VIC,Ensign Garments,Northcote,-37.762365,144.987897
291.4234238,QLD,Stuart,Stuart,-19.33945,146.8680556
132.688,QLD,Polyfoam Brisbane Pty Ltd,Darra,-27.578595,152.9522
106190,QLD,Mossman Mill,Mossman,-16.457857,145.378456
106776.01,WA,Brockman 4 Mine,Tom Price,-22.58231516,117.216158
1236.25,QLD,Goomeri Quarry,Goomeri,-26.25134,152.06591
32038.38,WA,Dampier Port,Dampier,-20.675,116.695
2352.73,WA,Dampier Railyard,Gap Ridge,-20.736389,116.76
13547.532,NT,Darwin Liquefied Natural Gas Plant,Wickham,-12.522068,130.865867
34618,NSW,Tarrawonga Coal Mine,Boggabri,-30.63594304,150.1631611
105.5048,QLD,Nolan Meats Gympie,Gympie,-26.19915,152.6989
3064.49,WA,Welshpool Resource Recovery Park,Welshpool,-31.9885619,115.9620332
222.683,VIC,Greenham Gippsland,Moe,-38.14411,146.26179
121478,NSW,Hunter Valley Operations,Lemington Via Singleton,-32.469337,150.986219
357.68,QLD,Brendale,Brendale,-27.327576,152.979127
422.765,VIC,Wollert Compressor Station,Wollert,-37.578713,144.994344
104.42,VIC,Lara,Lara,-38.0254401,144.4359879
163.099,WA,King Edward Memorial Hospital,Subiaco,-31.949444,115.818611
51.92,QLD,Townsville Bitumen Terminal,South Townsville,-19.256104,146.836534
258.4,QLD,Bulwer Bitumen Terminal,Pinkenba,-27.406206,153.138705
51613.52,WA,Paraburdoo Mine,Innawanga,-23.234444,117.585556
5734.2,WA,Iluka - Yoganup Extended,The Plains,-33.584167,115.665
175.2,VIC,Princes Linen Services,Altona North,-37.832909,144.821682
81.2,VIC,Princes Laundry Services Preston,Preston,-37.753604,145.02385
3209.384,QLD,Logan City Council - Browns Plains Waste & Recycling Facility,Heritage Park,-27.671484,153.070027
226.92,ACT,West Belconnen Flare,West Belconnen,-35.213953,148.987054
205.28,VIC,The Laminex Group,Cheltenham,-37.956661,145.041183
23.15,VIC,CLEANAWAY DANIELS PTY LTD,Laverton North,-37.827799,144.791624
11146,WA,Port Operations - Nelson Point & Finucane Island,Port Hedland,-20.321389,118.591389
53463,WA,Marillana Creek - Yandi,Newman,-22.728889,119.083611
188670,QLD,Goonyella Riverside and Broadmeadow Mine,Moranbah,-21.762662,147.955906
9087,WA,Leinster Nickel Operation,Leinster,-27.816389,120.700556
685,QLD,Kincora Terminal,Ballaroo,-27.02729,148.815
634.12,WA,Midland Brick Middle Swan,Middle Swan,-31.871667,116.007778
32000,TAS,Bell Bay Aluminium,George Town,-41.126602,146.870285
1844.66,VIC,FRASER ROAD LANDFILL,Clayton South,-37.947812,145.124767
4713.72,VIC,Melbourne Regional Landfill,Truganina,-37.779853,144.730217
80.0928,VIC,Kingfield Galvanizing Somerton,Somerton,-37.629366,144.953541
1011.84,VIC,Dennington,Dennington,-38.35415,142.43803
21.7404,NSW,CSIRO North Ryde Life Sciences Centre,North Ryde,-33.796527,151.141764
31020,WA,Savannah,Halls Creek,-17.362222,128.034167
249.93,WA,Mungarra Gas Turbine Station,West Casuarinas,-28.888889,115.117778
104.8746,NSW,LGI Grafton Flare,Elland,-29.766108,152.921735
173.2388,NSW,LGI Hawkesbury Flare,South Windsor,-33.633819,150.77404
90.5424,QLD,Sanofi Consumer Healthcare,Virginia,-27.37971,153.0616824
188.374,VIC,ContiTech Australia,Bayswater,-37.841346,145.27379
358.8224,VIC,Midfield Protein Solutions,Warrnambool,-38.37596,142.46133
82.5445,VIC,Little World Beverages - Geelong,Geelong South,-38.165806,144.360944
2857.088,NSW,Snack Brands Australia Smithfield,Smithfield,-33.842048,150.939573
28542,QLD,The Laminex Group - Gympie Site,Gympie,-26.013521,152.803639
0,QLD,Skyville Quarry,Moranbah,-22.18238611,147.9639833
60160,QLD,Tarong North PS,Nanango,-26.777175,151.914336
1710823,QLD,Tarong Power Station,Nanango,-26.78648,151.914128
268415,VIC,Loy Yang B Power Station,Traralgon,-38.256115,146.574948
7929.568,WA,Davyhurst Gold Project,Ora Banda,-30.03638,120.67083
383.4009,QLD,Bulwer Island,Pinkenba,-27.413036,153.141235
246.795,WA,Karratha Temporary Generation Project,Karratha,-20.762828,116.836242
11605.13,QLD,George Fisher Mine,Mount Isa,-20.56752,139.476718
4960,NSW,Tomingley Gold,Tomingley,-32.58009,148.20943
18752.49,WA,Scotia Mining Centre,Norseman,-32.4675,121.7819444
11797.83,QLD,Broadmeadow East Mine,Nebo,-21.818385,148.15273
2742.298,WA,Long-Victor/Otter-Juan/Coronet Mine,Feysville,-31.16667,121.6833
43100,QLD,Gregory Crinium Mine,Emerald,-23.208889,148.319444
1370.433,WA,Ravensthorpe Nickel Project Tamarine Quarry,Jerdacuttup,-33.804,120.287
33756.69,WA,Nova Nickel Project,Norseman,-31.83061,123.207262
7394.82,WA,Kalgoorlie Power Station,Feysville,-30.868611,121.498889
1984.21,NT,KINTORE POWER STATION,Kintore,-23.272598,129.387687
2330.89,NT,Daly Waters Power Station,Daly Waters,-16.26932,133.37559
43378.86,WA,Murrin Murrin Nickel Cobalt Project,Laverton,-28.767778,121.896111
4106.402,WA,Murrin Murrin East Nickel Mine,Leonora,-29.069149,122.165292
2958.464,WA,Murrin Murrin Calcrete Operations,Laverton,-28.767778,121.896111
46139.75,WA,Pluto Onshore Gas Treatment Plant,Burrup,-20.605884,116.770727
10.9,VIC,Springvale,Springvale,-37.976285,145.139707
946.64,WA,Compressor Station 5,Yalardy,-26.084722,115.225833
36.55,WA,Worsley and SW Cogen Meter Station,Worsley,-33.242778,116.071111
19485.84212,SA,Carrapateena,Pernatty,-31.256154,137.503392
18752.09,WA,Tuckabianna Operations,Cue,-27.452706,118.146136
658.1129,WA,Day Dawn Mining Operations,Via Cue,-27.468056,117.803611
35.50137,QLD,Wallumbilla LPG Plant,Wallumbilla,-26.694526,149.187986
1839.399,QLD,Silver Springs Gasfield,Surat,-27.598167,149.115839
101237.73,WA,Garden Well & Rosemont Gold Mines,Bandya,-27.902778,122.358056
25562,VIC,Paper Australia Maryvale Mill,Morwell,-38.179045,146.462361
26701.0823,SA,Prominent Hill Operations,Coober Pedy,-29.730431,135.564668
1089.5,VIC,Hanson Axedale Quarry,Axedale,-36.793304,144.518748
4673.4,VIC,Werribee Quarry,Mambourin,-37.904023,144.5296959
899.381,SA,MBL By Products,Wingfield,-34.847852,138.576173
34614.571,WA,Gruyere Gold Mine,Laverton,-27.97989,123.858714
88.7,NSW,Surf Beach Waste Depot,Surf Beach,-35.771802,150.208791
233.564,NT,Elliott Community Power Station,Elliott,-17.550347,133.539172
711.458,NT,Nauiyu Nambiyu (Daly River) Community Power Station,Daly River,-13.720144,130.704694
2296.43,NT,Borroloola Community Power Station,Borroloola,-16.054188,136.308258
71407.4642,QLD,Glencore Coal Rolleston Open Cut Mine,Rolleston,-24.442938,148.414665
2480,SA,Hanson Oilfield,Port Augusta,-27.808889,139.348708
1002.654001,QLD,Atlas Gas Field,Wandoan,-26.217388,149.785675
56390,QLD,Moranbah North,Moranbah,-21.884558,147.964253
31.9764,WA,Bridgetown Waste Management Site,Bridgetown,-33.941566,116.161076
1720,QLD,Roma North Compressor Station (formerly Eos),Mooga,-26.321772,149.050602
50.4,NSW,EDL Lucas Heights 1,Menai,-34.02957,151.000549
122,VIC,Clayton,Clayton South,-37.95072,145.118729
282,WA,Fitzroy,Fitzroy Crossing,-18.195833,125.5594444
66.2,QLD,Oaky Creek,Tieri,-23.035891,148.345262
119,QLD,Grosvenor,Moranbah,-21.977653,148.007139
824,VIC,Yabba Quarry,Yabba North,-36.20346,145.74445
6853.703,NSW,Ulan Coal Mine,Ulan,-32.239094,149.746968
101,QLD,Darling Downs Power Station meter station,Kogan,-27.116561,150.891714
3440,VIC,Longford Compressor Station,Longford,-38.203136,147.15912
3981.166,WA,Paddington Operations,Kalgoorlie,-30.489444,121.348889
2919.01,WA,Ora Banda (Enterprise) Operations,Ora Banda,-30.3708,121.088356
35755.99949,SA,AGL Torrens Island Power Station,Torrens Island,-34.806875,138.523302
23.546872,NSW,Newcastle Gas Storage Facility,Tomago,-32.812492,151.72944
129.6134,WA,Doral Rockingham Operations,Rockingham,-32.263056,115.761667
42292.64,WA,Woodie Woodie,Telfer,-21.630833,121.241389
469,VIC,Iona Gas,Port Campbell,-38.57258,143.040547
16871.42,NT,Montara Field,Darwin,-12.676434,124.543847
2325.295,WA,Wonnerup Operations,Yalyalup,-33.658916,115.4258972
1378.9465,WA,Barrow Island Operations,Barrow Island,-20.821389,115.393056
1265.71,QLD,Partnership t/a Origin Energy Mt Stuart,Stuart,-19.337898,146.850287
335.3,QLD,Opal Fibre Packaging,Rocklea,-27.563692,153.00524
42336.82115,QLD,Millaquin Mill,Bundaberg,-24.856837,152.365961
1922,SA,Montacute Quarry,Montacute,-34.8775,138.744722
19,VIC,AIRSTEP AUSTRALIA PTY LTD,Dandenong,-38.00193,145.224475
244.1,VIC,Visy Beverage,Clayton,-37.938989,145.11789
408,VIC,Altona Terminal,Altona,-37.851443,144.847354
1865.76687,VIC,Laverton,Laverton North,-37.822893,144.814102
6150.563,VIC,Esso - Long Island Point,Hastings,-38.301907,145.217185
58.5204,VIC,The Royal Victorian Eye & Ear Hospital,East Melbourne,-37.808684,144.976947
180.285,VIC,COSGROVE LANDFILL,Pine Lodge,-36.337767,145.605063
1111.728,VIC,Boral Quarry Montrose,Montrose,-37.816876,145.326618
0,VIC,ABMT Textiles,Melton,-37.705173,144.5996213
93.114,VIC,Mc Kellar Centre,Geelong North,-38.124843,144.337447
98.1936,VIC,Geelong Processing,Breakwater,-38.173498,144.376322
46042.28,TAS,Ecka Granules,George Town,-41.119,146.872
414.5916,VIC,Dandenong Hospital Cogeneration Plant,Dandenong,-37.975698,145.218276
176.5,VIC,Melbourne Facility,West Melbourne,-37.813796,144.908652
12338.59,NSW,CSA Mine,Cobar,-31.441358,145.778409
741.9785,NSW,CSR Hebel Somersby,Somersby,-33.417765,151.29083
4466,NSW,Kulnura Quarry,Kulnura,-33.266218,151.217006
1014.09,NSW,A J Bush and Sons Riverstone,Riverstone,-33.66814,150.900607
11716.7,NSW,Wingham Beef Exports Pty Ltd,Wingham,-31.873155,152.362585
63.0815,SA,Adelaide Galvanising Industries Pty Ltd,Cavan,-34.826132,138.596618
14740,NSW,Vales Point Power Station,Mannering Park,-33.160977,151.543337
597.9,NSW,Molong Quarry,Molong,-32.946224,148.962851
365.666,NSW,PGH Bricks and Pavers Cecil Park,Cecil Park,-33.869624,150.833517
115.55,WA,Hazelmere Asphalt Plant,Hazelmere,-31.921406,116.005368
8300,VIC,Wollert Plant,Wollert,-37.583912,144.97281
784.9935,QLD,Teys Australia Condamine Feedlot,Condamine,-26.897,149.855
2112,SA,Littlehampton Brick Company,Littlehampton,-35.053511,138.857532
10709.0947,QLD,Eidsvold Sleeper Mill and Landscaping Timbers Pty Ltd,Eidsvold,-25.396979,151.120079
6.8097,QLD,Strathane,Ellangown,-27.917725,151.593963
1209,SA,Klein Point Mine,Wool Bay,-34.96409,137.770015
116.74,QLD,Wondai Green Mill,Wondai,-26.317327,151.878196
1091.42,QLD,CSR Gyprock-Coopers Plains,Coopers Plains,-27.567341,153.030316
78503.48,SA,Tarpeena Mill,Tarpeena,-37.612778,140.8
5486.68,SA,Visy Glass - Adelaide,West Croydon,-34.88943333,138.5509639
463.462016,QLD,Virginia,Virginia,-27.372222,153.060833
306.988,WA,Yaraloola Compressor Station,Mardie,-21.45512922,115.9612247
72.8492,WA,Meneghello Galvanising Pty Ltd,Landsdale,-31.803275,115.843038
70.9,NSW,MAURI anz Camellia,Camellia,-33.820974,151.03435
1067.13,WA,Turner River Quarry,Pippingarra,-20.5,118.666667
1687.784018,VIC,Geelong Plant,North Geelong,-38.109617,144.363117
99.36,SA,VALLS STYRENE PACKAGING CO PTY LTD,Berri,-34.27656329,140.5785227
170.7752,VIC,Boronia,Boronia,-37.84019,145.296433
147.7652438,WA,Visy Board O'Connor,O'Connor,-32.060833,115.799444
2568.292,VIC,Dunnstown Quarry,Dunnstown,-37.601889,143.969266
235.7774433,VIC,NISSAN CASTING AUSTRALIA PTY LTD,Dandenong,-38.021,145.2143694
10850,VIC,Australian Tartaric Products,Colignan,-34.54882,142.33104
136.714,VIC,Western Hospital - Footscray,Footscray,-37.794373,144.888938
1.55,QLD,Bradford Insulation,Brendale,-27.326559,152.972989
69606,QLD,Moorvale Coal Mine,Via Nebo,-21.9853,148.357185
355.129,QLD,Eumundi Landfill,Doonan,-26.437544,153.026096
979.47,SA,Della Gas,Leigh Creek,-28.101008,140.637367
599.32,SA,NAWMA,Uleybury,-34.67478056,138.7284306
237.8798,WA,Harvey Fresh Milk,Harvey,-33.061531,115.894603
1.338,VIC,DE Shepparton Generator,Shepparton North,-36.323438,145.374115
422.287,NSW,Boral Hall Quarry,Hall,-35.090547,149.026754
4895.347987,NSW,James Hardie Rosehill,Rosehill,-33.826,151.03
527.529,NSW,Boral Culcairn Quarry,Culcairn,-35.722269,146.973458
24257.881,WA,Kemerton Power Station,Wellesley,-33.163333,115.780556
623.77,NSW,Narrabri CSG Project,Narrabri,-30.384,149.376
170.1321,WA,Stanley Road Waste Management Facility,Australind,-33.24,115.745
152.7695,QLD,Narangba,Narangba,-27.197068,153.007062
231.164,SA,Salisbury Quarry,Gould Creek,-34.74093,138.702506
70.47820244,NSW,Speedibake Ermington,Ermington,-33.814901,151.067157
74.9,NSW,Weston Animal Nutrition Enfield,Enfield,-33.886995,151.070074
121.49,SA,Compressor Station 4,Copley,-31.177287,139.378593
10891.19,WA,Randalls Gold Operations,Emu Flat,-31.105,122.034
1090.98,VIC,Cobden,Cobden,-38.333252,143.072247
81.0968,SA,BD&D Milk PTY LTD (Salisbury),Salisbury South,-34.781431,138.636684
5619.91,QLD,Cook,Bulloo Shire,-26.7,141.289
202.2942,VIC,LATROBE REGIONAL HOSPITAL,Traralgon,-38.218545,146.47134
1561.84,VIC,Jeeralang quarry,Hazelwood North,-38.317185,146.481648
986.1,NSW,Riverina Oils and Bio Energy,Wagga Wagga,-35.046406,147.430124
1222.0808,SA,ARDROSSAN DOLOMITE OPERATIONS,Ardrossan,-34.446603,137.895805
793.55136,NSW,LMS Awaba Renewable Energy Facility,Awaba,-33.024167,151.549722
2699.796096,NSW,LMS Summer Hill Renewable Energy Facility,Wallsend,-32.887854,151.65221
73.30210801,TAS,Remount Renewable Energy Facility,Mowbray,-41.403555,147.149642
342.7648051,QLD,Stapylton Renewable Energy Facility,Stapylton,-27.734626,153.244525
3776.256,QLD,Palm Island,Palm Island,-18.723056,146.585556
10873.4992,QLD,Thursday Island,Thursday Island,-10.58425,142.21697
5346,WA,"Kleenheat Gas, Kwinana Production Facility",Kwinana,-32.220326,115.7798
5849,QLD,Kenya CPP,Via Tara,-26.947533,150.457455
203,NSW,100% Bottling Company Pty Ltd,Rutherford,-32.714659,151.500647
3770.551988,WA,Fletcher International WA,Narrikup,-34.835278,117.791944
1510.6668,SA,Dry Creek Gas Power Station,Dry Creek,-34.847531,138.581747
855.72,QLD,SUNSTATE CEMENT LTD,Wynnum,-27.388,153.163
1483,NSW,Coraki Quarry,Coraki,-28.976412,153.264983
51.282,NSW,Ensign Services,Punchbowl,-33.935779,151.055593
41101.06458,QLD,RTA Yarwun Pty Ltd,Gladstone,-23.827222,151.154167
6411,VIC,Warrnambool Cheese & Butter Factory,Allansford,-38.392322,142.627197
438.962,QLD,Bunya Waste Management Facility,Bunya,-27.379931,152.942621
1013.687,QLD,Caboolture Waste Management Facility,Caboolture,-27.072118,152.986397
27746,VIC,Infrabuild Steel,Laverton North,-37.829631,144.788908
35506.26,QLD,Renewable Power Australia Ltd,Woongoolba,-27.734286,153.3273
9295.829,SA,BORG MANUFACTURING PANELS - LAKESIDE,Mount Gambier,-37.815278,140.747778
7637.32,SA,BORG PANELS - WHITE AVE,Mount Gambier,-37.82504167,140.7607694
36302.833,SA,OneFortyOne Wood Products - Jubilee Hwy Sawmill,Mount Gambier,-37.840358,140.808177
191.424,NSW,Coprice Leeton Feed Mill,Leeton,-34.555,146.395
455.2,VIC,Bega Foods International-Port Melbourne,Port Melbourne,-37.826687,144.924195
2139.2,VIC,SEI Qenos Cogeneration,Altona,-37.848833,144.811306
233.693127,NSW,Allnex Resins Botany,Botany,-33.951652,151.209883
977.3451022,NSW,Sanitarium The Health Food Company - Berkeley Vale,Berkeley Vale,-33.328322,151.411003
1186.203,QLD,Oxenford Quarries,Upper Coomera,-27.907301,153.29191
1409.99,NSW,Port of Newcastle,Carrington,-32.911413,151.767582
756.67,TAS,Impact Fertilisers,Derwent Park,-42.830916,147.311143
156.7317744,VIC,Guala Closures Australia,West Footscray,-37.79624712,144.857207
59.8733,QLD,Turosi Eagle Farm,Eagle Farm,-27.4104825,153.0956404
2374.11636,QLD,Ti Tree,Willowbank,-27.691686,152.662273
240,SA,Victor Harbor Quarry,Victor Harbor,-35.548056,138.591389
3135.27,VIC,Tylden Quarry,Tylden,-37.327778,144.412013
118.45,VIC,Lara Asphalt Plant,Lara,-38.0449,144.369476
27382.317,WA,Yara Pilbara Fertiliser Plant,Burrup Peninsular,-20.626389,116.7775
1476.243,VIC,Oceania Glass (Dandenong site),Dandenong,-38.011836,145.224236
1330.27,VIC,Athena Gas Plant,Port Campbell,-38.587923,142.941748
61.521,WA,Kwinana Bitumen Terminal,Kwinana Beach,-32.2432844,115.7661532
338,NSW,Bisalloy Steels Unanderra,Unanderra,-34.4555,150.854
935.000887,QLD,Willawong LFGE,Willawong,-27.603258,153.001829
156.426,VIC,Pakenham,Pakenham,-38.082765,145.495589
249.49,VIC,Swan Hill Abattoirs,Swan Hill,-35.299949,143.563811
89738.5,QLD,Baralaba Coal Mine,Baralaba,-24.154572,149.800279
329.139648,NSW,LMS Flare Blaxland,Blaxland,-33.732769,150.613456
